id_arbol,direccion,tipo_vereda,lado_vereda,especie,tipo_tendido,distancia_entre_ar,distancia_al_muro,activo,lng,lat
8,San Juan 1278,Chica,Par,Crespón,Ninguno,5.0,1.0,True,-58.8370984073059,-27.471855988173
16,San juan 1268,Chica,Impar,Crespón,Ninguno,5.0,1.0,True,-58.837121250061,-27.4716634611739
17,Bolivar 1074,Mediana,Par,Paraíso,Media Tensión (Con Protección),5.0,2.0,True,-58.837566779011,-27.4708885098159
18,Bolívar 1110,Grande,Par,Crespón,Preensamblado,3.0,1.0,True,-58.8369429837179,-27.470921673199
19,Bolivar 1134,Grande,Par,Crespón,Preensamblado,5.0,2.0,True,-58.8366704269759,-27.4709510070949
20,Roca s/n,Grande,Par,Moringa,Ninguno,4.0,0.0,True,-58.822073884707,-27.467295483101
21,Calle Roca S/N,Grande,Par,Palo Borracho,Preensamblado,4.0,0.0,True,-58.8219546705109,-27.467277300477
22,Roca sn,Grande,Par,Jacarandá,Preensamblado,5.0,0.0,True,-58.8220262548399,-27.4672459999659
23,Roca 750,Grande,Par,Ibirá Pitá,Media Tensión (Con Protección),3.0,2.0,True,-58.822296771094,-27.4674153165349
24,Roca sn,Grande,Par,Jacarandá,Preensamblado,5.0,0.0,True,-58.8219896247319,-27.467220046228
25,Roca S/N,Mediana,Par,Jacarandá,Preensamblado,3.0,4.0,True,-58.8222011497149,-27.4673840190089
26,Gobernador velazco 2051,Mediana,Impar,Pata de Buey,Media Tensión (Con Protección),7.0,2.0,True,-58.8331676868239,-27.4817156830029
27,Jujuy 749,Mediana,Impar,Paraíso,Alta tensión (Con Protección),2.0,1.0,True,-58.8276439184259,-27.466503766439
28,Carlos pellegrini 681,Chica,Impar,Pata de Buey,Preensamblado,8.0,1.0,True,-58.841770291328,-27.4648133363329
29,La valle 2183,Mediana,Impar,Pata de Buey,Media Tensión (Con Protección),3.0,1.0,True,-58.82417251444,-27.478163208876
30,General paz 2425,Mediana,Impar,Paraíso,Alta tensión (Sin Protección),4.0,1.0,True,-58.8212349395719,-27.4798828912169
31,Pedri de siervi mz.34 lote 5,Grande,Impar,Paraíso,Alta tensión (Con Protección),3.0,5.0,True,-58.809446249921,-27.5274580984599
36,Maria teresa villone 5521,Grande,Impar,Paraíso,Alta tensión (Con Protección),5.0,4.0,True,-58.810867868316,-27.5266534401119
38,Maria teresa villon 5521,Grande,Impar,Ñangapirí,Alta tensión (Con Protección),2.0,5.0,True,-58.810859608232,-27.526563768315
39,Emilio noya 332,Mediana,Par,Paraíso,Media Tensión (Con Protección),5.0,2.0,True,-58.812717813795,-27.52633847757
40,Emilio noya 305 esq. Esquivel,Mediana,Par,Thevetia,Alta tensión (Con Protección),5.0,3.0,True,-58.81276493181,-27.527123367108
42,Montenegro y argentina roja 3490,Mediana,Impar,Pata de Buey,Media Tensión (Con Protección),5.0,2.0,True,-58.815919160843,-27.5228012007649
43,Argentina roja 3333,Chica,Impar,Thevetia,Media Tensión (Con Protección),5.0,2.0,True,-58.815691586162,-27.523060532664
46,Emilio noya285,Mediana,Par,Paraíso,Media Tensión (Con Protección),3.0,3.0,True,-58.8123569611679,-27.5256319085779
49,Dimota 3661,Mediana,Impar,Pata de Buey,Media Tensión (Con Protección),9.0,3.0,True,-58.811905127788,-27.5249896284679
50,Damota 3639,Mediana,Impar,Thevetia,Media Tensión (Con Protección),9.0,3.0,True,-58.812529188245,-27.524842041879
51,Plaza libertad,Grande,Par,Ibirá Pitá,Ninguno,3.0,0.0,True,-58.822606760112,-27.4705016460529
54,Coronel artaza y laureles,Mediana,Par,Paraíso,Media Tensión (Con Protección),3.0,2.0,True,-58.784621479716,-27.4936830329709
56,Adolfo cipriano 130,Mediana,Par,Pata de Buey,Alta tensión (Con Protección),4.0,3.0,True,-58.814123739156,-27.522548197498
57,Adolfo cipriano 2832,Mediana,Par,Pata de Buey,Alta tensión (Con Protección),4.0,3.0,True,-58.814044276757,-27.522722239469
58,Abelardo dimotta,Parterre Central,Par,Jacarandá,Ninguno,5.0,20.0,True,-58.811327860718,-27.522507174576
33,Pedro de servi,Grande,Impar,Thevetia,Alta tensión (Con Protección),2.0,4.0,True,-58.8094534127249,-27.527584294688
35,Pedro deservi,Chica,Par,Thevetia,Alta tensión (Con Protección),2.0,2.0,True,-58.8092353291739,-27.525129855947
34,Pedro deservi,Grande,Impar,Pata de Buey,Alta tensión (Con Protección),6.0,4.0,True,-58.8093106291239,-27.5269395830889
44,Maria villon 5432,Mediana,Par,Pata de Buey,Media Tensión (Con Protección),2.0,2.0,True,-58.8108424910199,-27.5248445447149
41,Argentina rojas 3353,Mediana,Impar,Paraíso,Media Tensión (Con Protección),2.0,2.0,True,-58.816371863935,-27.5227886723569
45,Argentino roja,Mediana,Impar,Pata de Buey,Media Tensión (Con Protección),5.0,3.0,True,-58.8083041374339,-27.5234867506659
48,Dimota 3638,Mediana,Par,Paraíso,Media Tensión (Con Protección),3.0,3.0,True,-58.811155317439,-27.5254261261069
47,Dimota 3638,Mediana,Par,Paraíso,Media Tensión (Con Protección),3.0,2.0,True,-58.8123569611679,-27.5256319085779
52,Av. Independencia 5346,Mediana,Par,Paraíso,Alta tensión (Con Protección),3.0,2.0,True,-58.786264657974,-27.484250715449
53,Franklin Ruveda y Perito Moreno,Chica,Impar,Paraíso,Media Tensión (Con Protección),5.0,2.0,True,-58.786545053612,-27.490647827014
55,Heraclio perez 6660,Mediana,Par,Paraíso,Media Tensión (Con Protección),3.0,3.0,True,-58.810444509575,-27.5272868309189
59,Abelardo Dimotta,Grande,Par,Ibirá Pitá,Ninguno,5.0,20.0,True,-58.811273426507,-27.5223283939449
60,Dimotta,Parterre Central,Par,Jacarandá,Ninguno,5.0,20.0,True,-58.811427876948,-27.522687293808
61,Dimotta,Parterre Central,Par,Ibirá Pitá,Ninguno,5.0,20.0,True,-58.811441972502,-27.522483520411
65,"Catamarca, entre belgrano y bolívar",Mediana,Impar,Pata de Buey,Media Tensión (Con Protección),4.0,2.0,True,-58.833584107561,-27.471950975098
67,Ciudad de arequipa 2900,Parterre Central,Impar,Ibirá Pitá,Preensamblado,4.0,0.0,True,-58.832346650239,-27.490406044541
68,Calle cordoba,Mediana,Par,Pata de Buey,Media Tensión (Con Protección),4.0,3.0,True,-58.834748477892,-27.4718915248889
69,Congreso 1470,Chica,Impar,Ibirá Pitá,Alta tensión (Con Protección),4.0,0.0,True,-58.835072476503,-27.4926577808189
70,Congreso 1470,Chica,Impar,Ibirá Pitá,Alta tensión (Con Protección),4.0,0.0,True,-58.8349089918329,-27.492663253665
71,Congreso 1470,Chica,Impar,Ibirá Pitá,Alta tensión (Con Protección),4.0,0.0,True,-58.834838106573,-27.4927122977739
72,Congreso,Chica,Impar,Thevetia,Media Tensión (Con Protección),5.0,0.0,True,-58.834963238279,-27.492330437959
73,Congreso,Chica,Impar,Thevetia,Ninguno,5.0,0.0,True,-58.8349260016769,-27.492232749951
74,Congreso,Chica,Impar,Thevetia,Media Tensión (Sin Protección),4.0,0.0,True,-58.83523145831,-27.49262644857
75,Ricardo gutierrez,Chica,Par,Ibirá Pitá,Media Tensión (Con Protección),4.0,0.0,True,-58.8348002040569,-27.491972207909
76,Belgrano al 1175,Mediana,Impar,Thevetia,Subterraneo,5.0,2.0,True,-58.8362996828269,-27.472037436156
77,Ricardo gutierrez,Chica,Par,Ibirá Pitá,Media Tensión (Con Protección),4.0,0.0,True,-58.8347346352029,-27.491997296569
78,Ricardo gutierrez,Chica,Par,Ibirá Pitá,Media Tensión (Con Protección),4.0,0.0,True,-58.834622244219,-27.492003526056
79,Mendoza 1420,Chica,Par,Thevetia,Media Tensión (Con Protección),4.0,2.0,True,-58.8359794509829,-27.473570698902
80,Jujuy y mariano moreno,Mediana,Par,Thevetia,Media Tensión (Con Protección),5.0,3.0,True,-58.8283184082269,-27.474238309461
81,Av patagonia,Parterre Central,Par,Thevetia,Media Tensión (Con Protección),4.0,0.0,True,-58.83035511709,-27.491251289027
82,Av patagonia,Parterre Central,Par,Thevetia,Media Tensión (Con Protección),4.0,0.0,True,-58.8304923730849,-27.49111376588
83,Av patagonia,Parterre Central,Par,Thevetia,Media Tensión (Con Protección),4.0,0.0,True,-58.830642851331,-27.490990046941
84,Av patagonia,Parterre Central,Par,Thevetia,Media Tensión (Con Protección),4.0,0.0,True,-58.830755515206,-27.490902755316
85,Av patagonia,Parterre Central,Par,Thevetia,Media Tensión (Con Protección),4.0,0.0,True,-58.8305672416369,-27.491026351734
86,Av patagonia,Parterre Central,Par,Thevetia,Media Tensión (Con Protección),4.0,0.0,True,-58.8306930075879,-27.490936401917
87,Av patagonia,Parterre Central,Par,Thevetia,Media Tensión (Con Protección),4.0,0.0,True,-58.830433374819,-27.4911374776169
90,Calle 212,Mediana,Impar,Thevetia,Alta tensión (Con Protección),7.0,3.0,True,-58.8269545615289,-27.5053017366299
93,Av. Teniente ibañes 1700,Chica,Par,Pata de Buey,Alta tensión (Con Protección),4.0,3.0,True,-58.831544699452,-27.4848421200259
94,Av. Sarmiento 2287,Chica,Impar,Thevetia,Media Tensión (Con Protección),4.0,3.0,True,-58.830806045202,-27.4843512599419
97,Av. Teniente ibañes 1694,Mediana,Par,Paraíso,Media Tensión (Sin Protección),10.0,3.0,True,-58.8317510489019,-27.4851683970189
98,Cundom 1653,Mediana,Impar,Paraíso,Media Tensión (Con Protección),3.0,3.0,True,-58.831656271423,-27.485535054307
99,Av. Sarmiento,Parterre Central,Impar,Pata de Buey,Subterraneo,4.0,20.0,True,-58.830793584285,-27.4870176651039
100,Av. Sarmiento 2783,Parterre Central,Impar,Paraíso,Subterraneo,5.0,20.0,True,-58.8308611313039,-27.489624030059
101,Av. Sarmiento 2700,Parterre Central,Par,Thevetia,Subterraneo,5.0,20.0,True,-58.830781998611,-27.489973699905
102,Perugorria 1151,Chica,Impar,Thevetia,Media Tensión (Con Protección),3.0,2.0,True,-58.838264580473,-27.4840279488919
103,Guastavino 2257,Chica,Impar,Thevetia,Preensamblado,3.0,2.0,True,-58.8440679798089,-27.4829156372919
62,Av. Cuba 5401,Grande,Par,Palo Borracho,Subterraneo,8.0,2.0,True,-58.787743831942,-27.504910545192
64,Plaza del pirayui,Grande,Par,Jacarandá,Subterraneo,6.0,0.0,True,-58.7879555760589,-27.504143207291
66,Bolivar 1334,Mediana,Par,Pata de Buey,Subterraneo,4.0,3.0,True,-58.8339885067059,-27.471224140953
88,San lorenzo 1524,Mediana,Par,Pata de Buey,Media Tensión (Con Protección),4.0,3.0,True,-58.8327275026919,-27.475128673511
89,Calle 212,Mediana,Impar,Pata de Buey,Alta tensión (Con Protección),4.0,3.0,True,-58.826800131419,-27.5053341185059
91,Av. Sarmiento 2288,Chica,Par,Paraíso,Media Tensión (Con Protección),4.0,3.0,True,-58.831258992371,-27.4844735535929
95,Av. Sarmiento 2425,Grande,Impar,Pata de Buey,Alta tensión (Con Protección),18.0,2.0,True,-58.830872206178,-27.485166725818
92,Av. Sarmiento 2426,Parterre Central,Impar,Jacarandá,Media Tensión (Con Protección),4.0,12.0,True,-58.8311045413529,-27.4851818270789
96,Av. Teniente ibañes 1730,Mediana,Par,Thevetia,Media Tensión (Con Protección),18.0,3.0,True,-58.830151732913,-27.4847673178609
104,Punta ñaro esq. Bella vista,Chica,Par,Paraíso,Ninguno,20.0,3.0,True,-58.7818372211459,-27.442918521678
105,Guastavino 2257,Chica,Par,Pata de Buey,Preensamblado,4.0,2.0,True,-58.844098624547,-27.4826114525439
106,Bella vista esq. Punta ñaro,Chica,Par,Paraíso,Media Tensión (Con Protección),10.0,2.0,True,-58.781965784553,-27.44297414708
107,Guastavino 2257,Chica,Par,Pata de Buey,Preensamblado,4.0,2.0,True,-58.8441251339859,-27.482705888575
109,Pje 1 de mayo,Chica,Par,Pata de Buey,Preensamblado,4.0,2.0,True,-58.837314048368,-27.4887423484379
110,Pje 1 de mayo 2630,Chica,Par,Paraíso,Preensamblado,4.0,2.0,True,-58.8372298288219,-27.4883506269179
111,Pje 1 de mayo 2630,Chica,Par,Paraíso,Preensamblado,4.0,2.0,True,-58.8372016745379,-27.488227910399
113,Chubut 1860,Chica,Par,Thevetia,Preensamblado,6.0,2.0,True,-58.829322229258,-27.489669922124
114,Chubut 1968,Chica,Par,Thevetia,Preensamblado,4.0,2.0,True,-58.8281009847379,-27.4898317226769
115,Chubut 1968,Chica,Par,Thevetia,Preensamblado,4.0,2.0,True,-58.827954324525,-27.4898242291389
116,Av Jose R vidal 2909,Mediana,Impar,Paraíso,Media Tensión (Con Protección),4.0,3.0,True,-58.840522274717,-27.490257148613
117,Av Jose R vidal 2919,Chica,Impar,Paraíso,Media Tensión (Con Protección),4.0,3.0,True,-58.840539635674,-27.490311927522
118,Av Jose R vidal 2934,Chica,Par,Pata de Buey,Preensamblado,0.0,4.0,True,-58.840624261861,-27.490244377298
119,Hernan cortes y Jr vidal,Chica,Par,Thevetia,Preensamblado,4.0,2.0,True,-58.840819824297,-27.4899315381539
123,Adolfo mors 160,Grande,Par,Thevetia,Alta tensión (Con Protección),2.0,5.0,True,-58.777696214172,-27.448818208068
124,Adolfo mors,Grande,Par,Thevetia,Alta tensión (Con Protección),7.0,4.0,True,-58.777891350903,-27.448937810953
125,Av. Pedro montenegro 160,Parterre Central,Par,Pata de Buey,Ninguno,3.0,15.0,True,-58.803046615311,-27.525535742875
126,Montenegro 150,Parterre Central,Par,Pata de Buey,Ninguno,3.0,16.0,True,-58.80276093273,-27.5246700336589
130,Morales esquina N. Ciguersa,Mediana,Par,Pata de Buey,Ninguno,4.0,3.0,True,-58.781440047796,-27.447278638668
131,Los gladiolos 434,Mediana,Par,Pata de Buey,Preensamblado,4.0,2.0,True,-58.780277530163,-27.45706230092
132,250 viv. Mz. E cs. 2,Chica,Par,Pata de Buey,Alta tensión (Con Protección),2.0,3.0,True,-58.76993927573,-27.4566232002839
133,Los coco 102,Chica,Par,Pata de Buey,Media Tensión (Con Protección),4.0,3.0,True,-58.7880774778379,-27.4622362137169
138,70 viv. Mz 211 c 22,Grande,Par,Pata de Buey,Media Tensión (Con Protección),10.0,4.0,True,-58.796237144648,-27.4954930488179
141,Av. Riera y Av. Argentinos rojas al 300,Parterre Central,Par,Ingá,Alta tensión (Con Protección),5.0,20.0,True,-58.808051989202,-27.525522546314
142,Av. Riera y av. Argentina rojas,Parterre Central,Par,Ibirá Pitá,Alta tensión (Con Protección),5.0,20.0,True,-58.80750119955,-27.522804701083
143,Inglaterra y cartagena,Chica,Par,Pata de Buey,Preensamblado,10.0,3.0,True,-58.803739391037,-27.4947555046069
144,Valencia 05,Grande,Impar,Pata de Buey,Ninguno,6.0,3.0,True,-58.7885652271739,-27.4605576885259
147,P.N. soto 1870,Mediana,Par,Pata de Buey,Media Tensión (Con Protección),30.0,3.0,True,-58.827269286513,-27.479945802195
112,Caá cati,Grande,Par,Jacarandá,Media Tensión (Con Protección),5.0,0.0,True,-58.7850219847199,-27.4444199913649
120,Malvones 5650,Grande,Par,Pata de Buey,Media Tensión (Con Protección),3.0,3.0,True,-58.780579102355,-27.454208335372
121,90 viv. Csa 38,Chica,Par,Pata de Buey,Preensamblado,3.0,2.0,True,-58.7846260684479,-27.4485577971349
127,Montenego 100,Parterre Central,Impar,Pata de Buey,Ninguno,3.0,16.0,True,-58.80254466152,-27.5234237797239
122,Las violestas 700,Grande,Par,Pata de Buey,Alta tensión (Con Protección),3.0,4.0,True,-58.7796378959549,-27.449328264201
128,Yufre 3297,Chica,Impar,Pata de Buey,Media Tensión (Con Protección),2.0,3.0,True,-58.8095186923349,-27.5064032647079
129,Rio dulce 5750,Mediana,Par,Pata de Buey,Media Tensión (Con Protección),4.0,4.0,True,-58.7824225108699,-27.4449550300879
134,J.R. Fernandez,Mediana,Impar,Pata de Buey,Media Tensión (Con Protección),2.0,5.0,True,-58.787830723467,-27.4638544567019
135,Av. Paisandu,Parterre Central,Par,Thevetia,Alta tensión (Con Protección),3.0,18.0,True,-58.8257368448229,-27.500746647086
136,Av. Paisandu,Parterre Central,Impar,Thevetia,Ninguno,4.0,18.0,True,-58.8262874138739,-27.508260528606
137,Av ibera 2074,Grande,Par,Paraíso,Alta tensión (Con Protección),3.0,5.0,True,-58.832392164976,-27.498957269192
139,Av. Montenegro,Parterre Central,Impar,Pata de Buey,Subterraneo,5.0,20.0,True,-58.7964198196309,-27.495329214106
140,Av blas m riera al 200,Grande,Par,Jacarandá,Alta tensión (Con Protección),4.0,0.0,True,-58.8080961176289,-27.5262227942739
145,Las margaritas 1450,Mediana,Par,Pata de Buey,Media Tensión (Con Protección),3.0,4.0,True,-58.783252236794,-27.446030889536
146,Pasaje ( entre los crisaltemos y las camelia ),Mediana,Par,Pata de Buey,Preensamblado,3.0,3.0,True,-58.774854226597,-27.4575953226129
150,Pago largo 2172,Mediana,Par,Pata de Buey,Ninguno,3.0,2.0,True,-58.85051567261,-27.4805999495789
154,B° quintana. Calle 506 y pasaje 531,Grande,Par,Paraíso,Preensamblado,7.0,3.0,True,-58.7945463075039,-27.523560964493
157,Julio verne y roberto leyes,Grande,Impar,Pata de Buey,Media Tensión (Con Protección),6.0,4.0,True,-58.779040828744,-27.509089844902
159,Rioja 1177,Mediana,Impar,Paraíso,Media Tensión (Con Protección),10.0,3.0,True,-58.838077116191,-27.470145402774
160,Fragata 1993,Chica,Impar,Paraíso,Preensamblado,20.0,3.0,True,-58.821812214565,-27.4825140083299
161,Guemes 1864,Mediana,Par,Paraíso,Media Tensión (Con Protección),3.0,4.0,True,-58.8083433077449,-27.4836530002069
162,"Serctor M, casa 136, 216 viv",Chica,Par,Pata de Buey,Preensamblado,8.0,3.0,True,-58.833377388513,-27.4979664915899
163,Av. Cuarto centenario 3683,Mediana,Impar,Pata de Buey,Preensamblado,15.0,5.0,True,-58.838005498484,-27.497686928501
164,Taragui 1154,Mediana,Par,Pata de Buey,Media Tensión (Con Protección),6.0,3.0,True,-58.8394024069529,-27.4955272524459
165,Sebastian gaboto 3179,Chica,Impar,Chivato,Media Tensión (Con Protección),5.0,3.0,True,-58.8426245481569,-27.492219498107
168,Catamarca 512,Chica,Par,Pata de Buey,Ninguno,3.0,3.0,True,-58.832757436906,-27.464122411331
169,25 de mayo 1415,Mediana,Impar,Pata de Buey,Ninguno,3.0,4.0,True,-58.8318589296019,-27.464836906914
170,Enrique jasid y ramon contrera,Mediana,Par,Pata de Buey,Ninguno,4.0,3.0,True,-58.7742335205539,-27.482122637479
171,AV. SARMIENTO Y AV. PATAGONIA,Parterre Central,Par,Pata de Buey,Subterraneo,3.0,30.0,True,-58.830714040211,-27.490992345721
172,Santa cruz  1732,Mediana,Par,Pata de Buey,Ninguno,10.0,4.0,True,-58.829820104963,-27.4920201127239
173,Santa cruz 1762,Mediana,Par,Pata de Buey,Ninguno,10.0,4.0,True,-58.829862720807,-27.4922777405929
174,Santa cruz 1771,Grande,Impar,Pata de Buey,Preensamblado,3.0,5.0,True,-58.8296342113789,-27.492632339004
175,Santa cruz 1776,Mediana,Impar,Pata de Buey,Ninguno,10.0,4.0,True,-58.830041517653,-27.492986349225
176,Santa cruz y bonastre,Mediana,Par,Pata de Buey,Ninguno,7.0,4.0,True,-58.8301870354619,-27.493237953386
178,La cruz 3123,Grande,Impar,Paraíso,Media Tensión (Con Protección),3.0,4.0,True,-58.809217111834,-27.504121020805
179,Los talguelches 3150,Chica,Impar,Paraíso,Preensamblado,4.0,4.0,True,-58.814048547319,-27.5015849556919
181,San martin 1327,Mediana,Impar,Pata de Buey,Preensamblado,10.0,3.0,True,-58.839222576796,-27.4712056854689
182,San martin 1330,Mediana,Par,Pata de Buey,Preensamblado,15.0,3.0,True,-58.8395975244729,-27.471164056153
183,Belgrano 902,Mediana,Par,Pata de Buey,Preensamblado,5.0,3.0,True,-58.839279478926,-27.470833153914
184,Av. Cartagena casi resoagli,Grande,Par,Paraíso,Ninguno,3.0,6.0,True,-58.8065513383659,-27.4932322144339
149,Pje. Barranquera 2825,Mediana,Impar,Pata de Buey,Preensamblado,3.0,3.0,True,-58.848152214301,-27.488300675226
151,Peatonal N°1,Chica,Impar,Pata de Buey,Media Tensión (Con Protección),3.0,2.0,True,-58.8372824158049,-27.486020484661
152,Pasaje N°1 BARRIO pio x,Chica,Par,Paraíso,Media Tensión (Con Protección),3.0,3.0,True,-58.837508894358,-27.4856599776289
153,Tacuari y guemes,Mediana,Par,Paraíso,Media Tensión (Sin Protección),7.0,4.0,True,-58.8064421294339,-27.4821287471739
155,Serrando y meza B pirayui,Mediana,Impar,Pata de Buey,Alta tensión (Con Protección),5.0,3.0,True,-58.78003234641,-27.5231836958359
156,Julio verne y rafael,Mediana,Par,Paraíso,Alta tensión (Con Protección),4.0,3.0,True,-58.783461059619,-27.5086355495759
158,Moreno 655,Mediana,Impar,Pata de Buey,Media Tensión (Con Protección),3.0,3.0,True,-58.8426950201679,-27.472889910039
166,San lorenzo y quintana,Mediana,Impar,Pata de Buey,Media Tensión (Con Protección),4.0,3.0,True,-58.8312990597029,-27.463332506892
167,Quintana 1481,Chica,Impar,Pata de Buey,Alta tensión (Con Protección),5.0,3.0,True,-58.8315592576489,-27.4633426216929
185,Salta y bolivar,Mediana,Par,Pata de Buey,Alta tensión (Con Protección),4.0,5.0,True,-58.839410482243,-27.469246675314
186,Salta 1126,Mediana,Par,Pata de Buey,Ninguno,6.0,5.0,True,-58.839426274696,-27.4697849637239
187,Salta casi mariano moreno,Mediana,Par,Pata de Buey,Preensamblado,4.0,4.0,True,-58.839554247446,-27.471564850818
190,Pasaje gomez 3351,Chica,Impar,Pata de Buey,Ninguno,0.0,2.0,True,-58.8091490831589,-27.472438571853
192,Raul alfonsin  7480,Grande,Par,Ñangapirí,Media Tensión (Con Protección),5.0,3.0,True,-58.7553417537049,-27.483785934583
193,Rio miriñay,Mediana,Impar,Ñangapirí,Ninguno,6.0,3.0,True,-58.8121932064679,-27.5106836096489
194,Los atacamas 4800,Chica,Par,Ñangapirí,Preensamblado,10.0,4.0,True,-58.8096529184,-27.514596910034
197,Plaza de laguna brava,Plaza,Par,Jacarandá,Subterraneo,5.0,0.0,True,-58.718398156338,-27.493451404985
198,Parque mitre,Plaza,Par,Ibirá Pitá,Subterraneo,6.0,0.0,True,-58.827784539294,-27.461220628283
204,Av. Colon 869,Chica,Impar,Chivato,Alta tensión (Con Protección),6.0,4.0,True,-58.8435525083859,-27.488295563259
205,Hernandarias 2567,Chica,Impar,Ñangapirí,Media Tensión (Con Protección),6.0,4.0,True,-58.8453830465429,-27.49094162336
210,Heredia 4932,Mediana,Par,Pata de Buey,Preensamblado,20.0,3.0,True,-58.790720317074,-27.472057702602
211,Luis braile 4855,Mediana,Impar,Pata de Buey,Preensamblado,6.0,3.0,True,-58.792826070895,-27.4818931344739
215,Calle gascon,Mediana,Par,Paraíso,Media Tensión (Con Protección),4.0,4.0,True,-58.7960873808309,-27.485671504492
216,Calle gascon,Mediana,Par,Paraíso,Media Tensión (Con Protección),4.0,4.0,True,-58.7960873808309,-27.485671504492
217,Gascon 2025,Chica,Impar,Ñangapirí,Media Tensión (Con Protección),5.0,3.0,True,-58.7963805920189,-27.4860882298299
218,Inglaterra 3849,Mediana,Impar,Ñangapirí,Subterraneo,4.0,4.0,True,-58.805917340484,-27.499505793933
220,215 viv. Sec. 13 cs. 27 por calle gascon,Chica,Impar,Ñangapirí,Preensamblado,5.0,4.0,True,-58.797344978392,-27.4947208413499
226,San luis 809,Mediana,Impar,Ñangapirí,Ninguno,12.0,4.0,True,-58.8426601533239,-27.466167155785
227,9 de julio 0665,Mediana,Impar,Ñangapirí,Preensamblado,5.0,2.0,True,-58.841870407274,-27.465997074505
228,9 de julio 0673,Mediana,Impar,Ñangapirí,Preensamblado,10.0,2.0,True,-58.8417395178479,-27.4659979464519
229,Araos y acevedo,Mediana,Impar,Ñangapirí,Media Tensión (Con Protección),5.0,3.0,True,-58.792288560954,-27.482548382566
230,Araos 15 91,Mediana,Impar,Ñangapirí,Media Tensión (Con Protección),5.0,4.0,True,-58.792288560954,-27.482548382566
189,Ex via,Chica,Par,Pata de Buey,Media Tensión (Con Protección),5.0,3.0,True,-58.8344277224029,-27.476750852056
191,Baibiene 1911,Mediana,Impar,Pata de Buey,Alta tensión (Con Protección),17.0,4.0,True,-58.825744420959,-27.462895794562
195,Managua 3622,Mediana,Par,Ñangapirí,Media Tensión (Con Protección),30.0,2.0,True,-58.8096529184,-27.514596910034
196,Cabeza de vaca sector 4 casa 25 ( virgen de los dolores),Chica,Impar,Ñangapirí,Media Tensión (Con Protección),3.0,2.0,True,-58.8530446233179,-27.4890932582239
200,Av. Tacuari,Parterre Central,Par,Pata de Buey,Media Tensión (Con Protección),4.0,0.0,True,-58.807818575675,-27.487429099119
201,Panpin 58,Chica,Par,Ñangapirí,Preensamblado,3.0,2.0,True,-58.8217164928779,-27.458982850563
231,Araos 1591,Mediana,Impar,Ñangapirí,Media Tensión (Con Protección),5.0,4.0,True,-58.792288560954,-27.482548382566
232,Araos 1591,Mediana,Impar,Ñangapirí,Media Tensión (Con Protección),5.0,4.0,True,-58.792306926602,-27.482596459852
233,Araos 1591,Mediana,Impar,Ñangapirí,Media Tensión (Con Protección),5.0,4.0,True,-58.792315224862,-27.4826330735179
234,Ernesto meabe 7301,Chica,Impar,Ñangapirí,Preensamblado,5.0,3.0,True,-58.763931697235,-27.484432026606
235,Calle 558 ( 9450),Mediana,Par,Ñangapirí,Media Tensión (Con Protección),7.0,4.0,True,-58.738287383933,-27.489239152182
236,Calle 558 ( 9455),Chica,Impar,Paraíso,Media Tensión (Con Protección),10.0,3.0,True,-58.7382784438069,-27.4890896732039
237,Nelly y moresi,Chica,Impar,Ñangapirí,Alta tensión (Con Protección),5.0,4.0,True,-58.773735125666,-27.498997956763
32,Pedro de siervi 5561,Grande,Impar,Paraíso,Alta tensión (Con Protección),2.0,4.0,True,-58.80937233,-27.5272671421309
63,Turin 2919,Chica,Impar,Thevetia,Media Tensión (Con Protección),2.0,2.0,True,-58.7864174971379,-27.50937292715
108,Las margarita esq. Caá cati,Grande,Impar,Pata de Buey,Media Tensión (Con Protección),3.0,3.0,True,-58.7834066796759,-27.444230135367
148,Gral paz 2314,Mediana,Par,Pata de Buey,Media Tensión (Sin Protección),3.0,4.0,True,-58.8223443999739,-27.4801609467929
188,Esx via 1390,Chica,Par,Paraíso,Media Tensión (Con Protección),4.0,3.0,True,-58.834253229609,-27.476811365376
238,Gabriela mistral 4945,Chica,Impar,Paraíso,Alta tensión (Con Protección),4.0,3.0,True,-58.789244600076,-27.4695565991059
239,B 3 de abril 215 viv. S.B c.90,Chica,Par,Paraíso,Media Tensión (Sin Protección),6.0,4.0,True,-58.834511315256,-27.504699052846
240,B° 3 de abril 215 viv. S.b c. 90,Mediana,Par,Paraíso,Media Tensión (Con Protección),6.0,4.0,True,-58.8346415043959,-27.5046595107289
241,Ibera 2086,Grande,Par,Pata de Buey,Media Tensión (Con Protección),3.0,4.0,True,-58.827282240039,-27.4995045583589
243,Ibera 2086,Grande,Par,Pata de Buey,Media Tensión (Con Protección),3.0,4.0,True,-58.827250117407,-27.499333755169
244,Ibera 2080,Grande,Par,Paraíso,Media Tensión (Con Protección),4.0,9.0,True,-58.827404650641,-27.4992685063459
246,Av. El maestro,Mediana,Par,Pata de Buey,Media Tensión (Con Protección),30.0,8.0,True,-58.8265653616259,-27.4947989315849
247,Ibera 2080,Grande,Par,Paraíso,Media Tensión (Con Protección),4.0,6.0,True,-58.8274324883769,-27.4993289536269
248,Ibera2080,Grande,Par,Paraíso,Media Tensión (Con Protección),4.0,6.0,True,-58.827391140022,-27.499316015718
249,Ruta 5  km.32,Grande,Par,Palo Borracho,Alta tensión (Con Protección),10.0,10.0,True,-58.7523867149539,-27.4909077161769
250,Ruta 5 km. 32,Grande,Par,Palo Borracho,Alta tensión (Con Protección),10.0,10.0,True,-58.7522391176069,-27.490927727079
251,Ruta 5 km.32,Grande,Par,Jacarandá,Alta tensión (Con Protección),10.0,10.0,True,-58.7523118819069,-27.490919905925
252,Ruta 5 km.32,Grande,Par,Jacarandá,Alta tensión (Con Protección),10.0,10.0,True,-58.752195820251,-27.4909305561369
253,Raul alfonsin km.32,Chica,Par,Jacarandá,Alta tensión (Con Protección),10.0,10.0,True,-58.7503691028519,-27.484204774843
254,Raul alfonsina km.32,Grande,Par,Palo Borracho,Alta tensión (Con Protección),10.0,10.0,True,-58.7505141449049,-27.4841854039869
255,Raul alfonzin km32,Grande,Par,Jacarandá,Alta tensión (Con Protección),10.0,10.0,True,-58.7502772598409,-27.484202335064
256,Raul alfonsin km.32,Grande,Par,Jacarandá,Alta tensión (Con Protección),10.0,10.0,True,-58.7501306327449,-27.4842075267389
257,Av. Montenegro ( santa catalina ),Parterre Central,Par,Pata de Buey,Preensamblado,3.0,2.0,True,-58.803516737767,-27.528589947004
258,Av. Montenegro ( santa catalina),Parterre Central,Par,Pata de Buey,Ninguno,3.0,2.0,True,-58.803509949423,-27.528564614
263,Av Montenegro ( santa catalina),Parterre Central,Par,Pata de Buey,Ninguno,3.0,2.0,True,-58.8035043801519,-27.528544127298
264,Av .Montenegro ( santa catalina),Parterre Central,Par,Pata de Buey,Ninguno,3.0,2.0,True,-58.803498103971,-27.5285232762
265,Av. Montenegro ( santa catalina),Parterre Central,Par,Pata de Buey,Ninguno,3.0,2.0,True,-58.8034967697049,-27.5285001630979
266,Av Montenegro ( santa catalina),Parterre Central,Par,Pata de Buey,Ninguno,3.0,2.0,True,-58.803490397206,-27.52847847017
267,Av. Montenegro ( santa catalina),Parterre Central,Par,Pata de Buey,Ninguno,3.0,2.0,True,-58.803473333924,-27.528390921722
268,Av Montenegro ( santa catalina),Parterre Central,Par,Pata de Buey,Ninguno,3.0,2.0,True,-58.803445788787,-27.528259878307
269,Av. Montenegro 365 ( santa catalina),Parterre Central,Par,Pata de Buey,Ninguno,3.0,2.0,True,-58.8034234688339,-27.528158643139
270,Av. Montenegro 363 ( santa catalina),Parterre Central,Par,Pata de Buey,Ninguno,3.0,2.0,True,-58.803418733838,-27.528085743542
271,Av Montenegro 363 ( santa catalina),Parterre Central,Par,Pata de Buey,Media Tensión (Con Protección),3.0,2.0,True,-58.8034023676149,-27.528033455725
272,Av Montenegro 363 ( santa catalina),Parterre Central,Par,Pata de Buey,Ninguno,3.0,2.0,True,-58.803390088724,-27.5279925227529
273,Av Montenegro 365 ( santa catalina),Parterre Central,Par,Palo Borracho,Ninguno,3.0,2.0,True,-58.803385131017,-27.527957923862
275,Av. Montenegro 350 ( santa catalina),Parterre Central,Par,Ibirá Pitá,Ninguno,3.0,2.0,True,-58.8033574259049,-27.527818504931
279,Av. Montenegro mz. 18 c. 17 s. 7,Parterre Central,Par,Pata de Buey,Ninguno,3.0,2.0,True,-58.803343946009,-27.5276720478169
280,Av Montenegro 322 ( santa catalina),Parterre Central,Par,Pata de Buey,Preensamblado,3.0,2.0,True,-58.8033291855389,-27.527609832648
281,Av Montenegro 314 ( santa catalina),Parterre Central,Par,Pata de Buey,Ninguno,3.0,2.0,True,-58.803294100197,-27.527390568501
283,Av. Montenegro 306 ( santa catalina),Parterre Central,Par,Timbó Colorado,Ninguno,3.0,2.0,True,-58.8032771233329,-27.527257720768
277,Av Montenegro 350 ( santa catalina),Parterre Central,Par,Tecoma Lapachillo,Ninguno,5.0,2.0,True,-58.80335147817,-27.5277714241569
286,Av Montenegro 298,Parterre Central,Par,Palo Borracho,Ninguno,3.0,2.0,True,-58.8032432918479,-27.527080677354
288,Av Montenegro 290 ( santa catalina),Chica,Par,Pata de Buey,Ninguno,3.0,2.0,True,-58.803218634522,-27.526993710384
289,Av Montenegro 290 ( santa catalina),Parterre Central,Par,Pata de Buey,Ninguno,3.0,2.0,True,-58.803210735905,-27.526947899625
290,Av. Montenegro 262,Parterre Central,Par,Pata de Buey,Ninguno,3.0,2.0,True,-58.803207140349,-27.526909885249
291,Av Montenegro y H. Dimota,Parterre Central,Par,Pata de Buey,Ninguno,3.0,3.0,True,-58.803173089513,-27.5267843523769
292,Av Montenegro ( santa catalina),Parterre Central,Par,Pata de Buey,Ninguno,3.0,2.0,True,-58.803162759597,-27.526730984595
293,Av Montenegro ( santa catalina),Parterre Central,Par,Pata de Buey,Ninguno,3.0,2.0,True,-58.8031464530689,-27.526630766097
294,Av Montenegro y H. Dimota,Parterre Central,Par,Pata de Buey,Ninguno,3.0,2.0,True,-58.8031335104,-27.5265496956009
295,H. Dimota 4076 torre 2,Mediana,Par,Pata de Buey,Media Tensión (Con Protección),4.0,7.0,True,-58.8035033317629,-27.5264704577199
299,Av. Cuarto de centenario,Parterre Central,Par,Ñangapirí,Alta tensión (Sin Protección),5.0,2.0,True,-58.838105647254,-27.489746083269
301,Plaza mercosur,Plaza,Par,Ibirá Pitá,Subterraneo,4.0,0.0,True,-58.782590703742,-27.484958703711
302,Plaza Mercosur,Plaza,Par,Ibirá Pitá,Subterraneo,10.0,0.0,True,-58.782511206303,-27.4850468994789
303,Plaza Mercosur,Plaza,Par,Ibirá Pitá,Subterraneo,4.0,0.0,True,-58.7824221484089,-27.485138794034
304,Plaza Mercosur,Plaza,Par,Jacarandá,Subterraneo,7.0,0.0,True,-58.7823338065299,-27.485225576792
305,Plaza Mercosur,Plaza,Par,Pata de Buey,Subterraneo,4.0,0.0,True,-58.7822473644639,-27.485302502201
306,Plaza Mercosur,Plaza,Par,Jacarandá,Media Tensión (Con Protección),0.0,4.0,True,-58.782183512955,-27.485432227236
307,Plaza Mercosur,Chica,Par,Pata de Buey,Preensamblado,8.0,0.0,True,-58.7822926009209,-27.485419970691
308,Plaza Mercosur,Plaza,Par,Pata de Buey,Preensamblado,4.0,0.0,True,-58.7821006713299,-27.48560229573
309,Plaza Mercosur,Plaza,Par,Pata de Buey,Preensamblado,7.0,12.0,True,-58.782066317426,-27.4858804467269
310,Plaza Mercosur,Plaza,Par,Pata de Buey,Preensamblado,4.0,0.0,True,-58.781929353291,-27.4859543030209
311,Plaza Mercosur,Plaza,Par,Pata de Buey,Preensamblado,4.0,0.0,True,-58.7819563821149,-27.4861533319609
314,Plaza Mercosur,Plaza,Par,Ibirá Pitá,Preensamblado,7.0,0.0,True,-58.7831166312739,-27.484705606697
315,Plaza Mercosur,Parterre Central,Par,Ibirá Pitá,Media Tensión (Sin Protección),20.0,0.0,True,-58.7831989087669,-27.4845985841939
316,Santo tome y margaritas,Grande,Par,Ingá,Alta tensión (Con Protección),4.0,2.0,True,-58.7855700773699,-27.4399085001719
317,Bolivar  y  velez sarsfield,Mediana,Impar,Jacarandá,Preensamblado,4.0,3.0,True,-58.820649027279,-27.472460876865
321,Entre rio 855,Mediana,Par,Ñangapirí,Media Tensión (Con Protección),8.0,3.0,True,-58.844068010127,-27.466310948006
322,Entre rio 1044,Mediana,Par,Ñangapirí,Media Tensión (Con Protección),7.0,3.0,True,-58.844330852808,-27.4684794419329
325,Las teresitas 5630,Mediana,Par,Ñangapirí,Preensamblado,6.0,3.0,True,-58.7807024002789,-27.4564574419359
326,Las teresitas 5630,Mediana,Par,Ñangapirí,Preensamblado,4.0,3.0,True,-58.7806724110329,-27.4564425682109
351,Santa fe 583,Mediana,Impar,Fresno,Preensamblado,1.0,1.7,True,-58.829971862321,-27.4647172720139
352,B montaña 400 vivmz 79 casa 36 calle klein  5456,Chica,Par,Sin identificar,Media Tensión (Con Protección),4.0,1.0,True,-58.7943526573229,-27.51427895403
353,Junin 447,Mediana,Impar,Ficus,Preensamblado,10.0,2.0,True,-58.844754361869,-27.4669258956109
354,Brasil 1015,Mediana,Impar,Fresno,Alta tensión (Con Protección),10.0,1.5,True,-58.824208022918,-27.46981401684
355,San juan 1230,Chica,Impar,Ibirá Pitá,Preensamblado,16.0,1.2,True,-58.8370248396829,-27.4711990667899
359,Sargento Cabral 2100,Grande,Par,Fresno,Ninguno,17.0,3.0,True,-58.8231957358529,-27.45981916992
361,Rivadavia 1189,Mediana,Impar,Crespón,Alta tensión (Con Protección),1.5,2.5,True,-58.836581983663,-27.4743697672709
360,Rivadavia 1189,Mediana,Impar,Naranjo agrio,Alta tensión (Con Protección),1.5,2.5,True,-58.8365384947409,-27.474382155383
362,Rivadavia 1177,Mediana,Impar,Crespón,Alta tensión (Con Protección),2.0,2.5,True,-58.836679870144,-27.474355093382
363,Rivadavia 1177,Mediana,Impar,Crespón,Alta tensión (Con Protección),2.0,2.5,True,-58.836851285392,-27.4743315523369
364,Rivadavia 1155,Mediana,Impar,Palmera,Alta tensión (Con Protección),2.4,1.8,True,-58.8367767976389,-27.474332873257
365,Rivadavia 1155,Chica,Impar,Paraíso,Alta tensión (Con Protección),2.4,1.8,True,-58.836798592721,-27.474327910325
366,Rivadavia 1145,Mediana,Impar,Paraíso,Alta tensión (Con Protección),9.0,2.0,True,-58.8370889427099,-27.474299887191
368,San Juan 1451,Mediana,Impar,Fresno,Alta tensión (Con Protección),4.0,2.5,True,-58.837297455721,-27.473618152469
369,San Juan 1425,Mediana,Impar,Fresno,Alta tensión (Con Protección),24.0,2.5,True,-58.8372925023859,-27.4735033241009
373,Mendoza 1478,Mediana,Par,Ficus variegado,Alta tensión (Con Protección),5.0,2.0,True,-58.836330355472,-27.474201991581
374,Mendoza 1490,Mediana,Par,Ficus variegado,Alta tensión (Con Protección),5.0,2.0,True,-58.83634806153,-27.474296716569
375,Mendoza 1184,Chica,Par,Ficus,Alta tensión (Con Protección),5.0,2.0,True,-58.8363440279039,-27.474265233067
376,Mendoza 1495,Mediana,Par,Ficus variegado,Alta tensión (Con Protección),5.0,2.0,True,-58.836344927688,-27.474362629123
378,Bolivar 1590,Mediana,Par,Ficus variegado,Media Tensión (Con Protección),6.0,2.4,True,-58.831102648225,-27.4715075898689
379,Bolivar 1586,Mediana,Par,Paraíso,Media Tensión (Con Protección),6.0,2.4,True,-58.831232024238,-27.471472775346
380,Bolivar 1558,Mediana,Par,Ficus,Media Tensión (Con Protección),8.0,2.4,True,-58.8312623491539,-27.471456867389
381,Bolivar 1554,Mediana,Par,Naranjo agrio,Media Tensión (Con Protección),12.0,2.4,True,-58.8314253310329,-27.4714559250869
382,Bolivar 1540,Mediana,Par,Pata de Buey (Nativa),Media Tensión (Con Protección),4.0,2.4,True,-58.831524752484,-27.471442070032
383,Bolivar 1538,Mediana,Par,Pata de Buey (Nativa),Media Tensión (Con Protección),7.0,2.4,True,-58.831503389623,-27.4714331626259
385,Bolivar 1532,Mediana,Par,Ficus variegado,Media Tensión (Con Protección),6.0,2.4,True,-58.831680742273,-27.4714190814639
386,Bolivar 1516,Mediana,Par,Ficus variegado,Media Tensión (Con Protección),6.0,2.4,True,-58.8317331757779,-27.471412633132
389,San Lorenzo 1223,Grande,Impar,Palmera,Media Tensión (Con Protección),2.5,2.8,True,-58.832132436464,-27.471526822211
390,San Lorenzo 1227,Grande,Impar,Naranjo agrio,Media Tensión (Con Protección),2.5,2.6,True,-58.8321484897399,-27.47158128931
391,San Lorenzo 1251,Grande,Impar,Pata de Buey,Media Tensión (Con Protección),30.0,2.6,True,-58.8321696782049,-27.4716578929349
392,San Lorenzo 1281,Grande,Impar,Ficus variegado,Media Tensión (Con Protección),6.0,2.4,True,-58.8321689189889,-27.471872656468
367,San Juan 1451,Mediana,Impar,Palito dulce,Alta tensión (Con Protección),4.0,2.5,True,-58.837302089357,-27.4736538623179
370,Mariano Moreno 1112,Mediana,Par,Tulipanero,Alta tensión (Con Protección),10.0,2.5,True,-58.836999141577,-27.473320689122
387,San Lorenzo 1209,Grande,Impar,Palito dulce,Media Tensión (Con Protección),15.0,2.4,True,-58.832134486545,-27.4714303870329
393,San Lorenzo 1287,Grande,Impar,Ficus variegado,Media Tensión (Con Protección),7.0,2.4,True,-58.832248320175,-27.4723058889459
377,España 954,Chica,Par,Palmera,Media Tensión (Con Protección),0.0,1.5,True,-58.8295186199294,-27.4686028096284
394,San Lorenzo 1289,Grande,Impar,Ficus variegado,Alta tensión (Con Protección),7.0,2.4,True,-58.832210525222,-27.472443048997
395,Belgrano 1513,Mediana,Impar,Ficus variegado,Media Tensión (Con Protección),0.0,2.4,True,-58.8321783022609,-27.4725124479749
396,Santa fe 1290,Mediana,Par,Ficus,Media Tensión (Con Protección),4.5,2.4,True,-58.831047318127,-27.472507767258
397,Santa fe 1282,Chica,Par,Ficus,Media Tensión (Con Protección),4.5,2.4,True,-58.831023150426,-27.472421220099
399,Salta 1261,Mediana,Impar,Álamo negro,Alta tensión (Con Protección),10.0,2.5,True,-58.839354841949,-27.471446846856
400,Belgrano 905,Mediana,Impar,Palmera,Ninguno,70.0,2.0,True,-58.8393238351359,-27.4717902160669
401,Belgrano 961,Mediana,Impar,Fresno,Alta tensión (Con Protección),6.0,2.0,True,-58.838887967216,-27.4718352902239
402,Belgrano 965,Mediana,Impar,Fresno,Alta tensión (Con Protección),6.0,2.0,True,-58.838763684736,-27.471846670203
403,Belgrano 965,Mediana,Impar,Fresno,Alta tensión (Con Protección),5.0,2.0,True,-58.8386251928549,-27.471858453117
404,La Rioja 1282,Mediana,Par,Fresno,Alta tensión (Con Protección),6.0,2.5,True,-58.838560743457,-27.471854717315
407,San Juan 1278,Chica,Par,Pata de Buey,Media Tensión (Con Protección),0.0,1.8,True,-58.837220348778,-27.47179054932
408,Bolivar 1084,Grande,Par,Fresno,Media Tensión (Con Protección),7.0,2.75,True,-58.837157880157,-27.470896838752
409,Bolivar 1080,Grande,Par,Fresno,Media Tensión (Con Protección),4.0,2.75,True,-58.8371747845479,-27.4708804321339
410,Bolivar 1078,Grande,Par,Naranjo agrio,Media Tensión (Con Protección),6.0,2.75,True,-58.8372351650119,-27.470875009322
411,Bolivar 1064,Grande,Par,Palmera,Media Tensión (Con Protección),0.4,2.75,True,-58.83739452839,-27.470880838785
412,Bolivar 1064,Grande,Par,Palmera,Media Tensión (Con Protección),0.4,2.75,True,-58.837402550321,-27.4708617818759
413,Bolivar 1062,Grande,Par,Palmera,Media Tensión (Con Protección),3.0,2.75,True,-58.8373193813759,-27.4708770067429
414,Bolivar 1060,Grande,Par,Palmera,Media Tensión (Con Protección),0.2,2.75,True,-58.8375908319849,-27.470854707924
415,Bolivar 1060,Grande,Par,Palmera,Media Tensión (Con Protección),0.2,2.75,True,-58.8374527166269,-27.470862277218
416,Bolivar 1056,Grande,Par,Naranjo agrio,Media Tensión (Con Protección),4.0,2.75,True,-58.8376726095959,-27.4708488758789
417,Bolivar  1040,Grande,Par,Ficus,Media Tensión (Con Protección),6.0,2.75,True,-58.837719813462,-27.470899870303
418,Bolivar 1032,Grande,Par,Palmera,Media Tensión (Con Protección),6.0,2.75,True,-58.837929766866,-27.4708423320109
420,Bolivar 1006,Grande,Par,Ficus,Media Tensión (Con Protección),2.5,2.75,True,-58.838234177417,-27.4708236527559
421,Bolivar 1000,Grande,Par,Chivato,Media Tensión (Con Protección),2.5,2.75,True,-58.838351793644,-27.4707946937369
422,La Rioja 1209,Chica,Impar,Palmera,Media Tensión (Con Protección),3.0,1.4,True,-58.838374498023,-27.4708207545659
423,La Rioja 1213,Chica,Impar,Palmera,Media Tensión (Con Protección),3.0,1.4,True,-58.83835877389,-27.470882883723
424,Bolivar 1215,Chica,Impar,Limpiatubos,Media Tensión (Con Protección),15.0,1.4,True,-58.838384908213,-27.4709548180879
425,Belgrano,Mediana,Impar,Palmera,Media Tensión (Con Protección),5.0,2.2,True,-58.8384241526389,-27.471909800378
384,Bolivar 1536,Mediana,Par,Falso mirto,Media Tensión (Con Protección),8.0,2.4,True,-58.831634678141,-27.4714269261619
398,Santa fe  1268,Chica,Par,Falso mirto,Media Tensión (Con Protección),22.0,1.9,True,-58.8309885714649,-27.4721756618979
426,Belgrano 1009,Mediana,Impar,Palmera,Media Tensión (Con Protección),5.0,2.2,True,-58.838347797816,-27.47191132633
427,Belgrano 1015,Mediana,Impar,Palmera,Alta tensión (Con Protección),3.0,2.2,True,-58.838253016906,-27.471919094847
428,Belgrano 1017,Mediana,Impar,Palmera,Media Tensión (Con Protección),3.0,2.2,True,-58.838162635524,-27.4719400330989
429,Belgrano 1052,Mediana,Impar,Fresno,Media Tensión (Con Protección),5.0,2.2,True,-58.8379014774449,-27.4719440071019
430,Belgrano 1057,Mediana,Impar,Fresno,Media Tensión (Con Protección),5.0,2.2,True,-58.838045892575,-27.471920002236
431,Belgrano 1069,Mediana,Impar,Fresno,Media Tensión (Con Protección),20.0,2.2,True,-58.837505282705,-27.471981676622
432,Belgrano 1093,Mediana,Impar,Mora,Media Tensión (Con Protección),28.0,2.2,True,-58.8373366749629,-27.472003825638
388,San Lorenzo 1219,Grande,Impar,Palito dulce,Media Tensión (Con Protección),0.3,3.0,True,-58.83211532186,-27.471491837971
433,San luis 1085,Mediana,Impar,Ficus,Preensamblado,80.0,1.7,True,-58.8430596073199,-27.4691467847139
372,Mendoza 1468,Chica,Par,Palito dulce,Alta tensión (Con Protección),10.0,2.0,True,-58.8363890622581,-27.4739864444355
434,Lavalle 904,Mediana,Impar,Fresno,Preensamblado,6.0,2.0,True,-58.8405205667819,-27.4767290790399
439,Mendoza 1152,Mediana,Par,Palmera,Ninguno,8.0,2.0,True,-58.835958379447,-27.470494651012
440,Mendoza 1140,Mediana,Par,Palmera,Preensamblado,15.0,2.0,True,-58.835952276005,-27.4703695065459
441,San Martin 1170,Mediana,Par,Palmera,Preensamblado,6.0,2.0,True,-58.8362443481089,-27.4698915849449
445,Bolivar 1021,Mediana,Impar,Palmera,Preensamblado,8.0,2.5,True,-58.838089203383,-27.470755520509
446,Bolivar 1021,Mediana,Impar,Palmera,Preensamblado,8.0,2.5,True,-58.838126759066,-27.4707612246299
447,La Rioja 1077,Mediana,Par,Falso paraiso,Preensamblado,7.0,2.5,True,-58.8383487445159,-27.4705763465949
449,La Rioja 1165,Mediana,Impar,Palmera,Preensamblado,8.0,2.0,True,-58.838315533831,-27.4703602435379
450,La Rioja 1161,Mediana,Impar,Chivato,Preensamblado,6.0,2.0,True,-58.838309062804,-27.4703253280179
451,La Rioja 159,Mediana,Impar,Leucaena,Preensamblado,7.0,2.2,True,-58.838309152071,-27.470277012377
406,La Rioja 1284,Mediana,Par,Palmera,Ninguno,3.0,2.0,True,-58.8385313686289,-27.4717542702819
436,Mendoza 1180,Mediana,Par,Palmera,Ninguno,7.0,1.8,True,-58.8360476119672,-27.4707227945604
452,La Rioja 1145,Mediana,Impar,Leucaena,Media Tensión (Sin Protección),7.0,2.2,True,-58.838305502753,-27.470269539854
453,La Rioja 1126,Mediana,Par,Pata de Buey (Nativa),Media Tensión (Sin Protección),7.0,2.3,True,-58.8382819921919,-27.470055014066
457,San Martin 1050,Mediana,Par,Palmera,Media Tensión (Sin Protección),3.0,2.3,True,-58.8375953426699,-27.469747073358
458,San Martin 1050,Mediana,Par,Palmera,Media Tensión (Sin Protección),4.0,2.3,True,-58.837491658133,-27.469763593342
460,La Rioja 1142,Mediana,Par,Palmera,Media Tensión (Sin Protección),9.0,2.0,True,-58.8383263383289,-27.469860079505
461,La Rioja 1142,Mediana,Impar,Palmera,Media Tensión (Sin Protección),7.0,2.0,True,-58.8383321633929,-27.469947684474
463,La rioja 1178,Mediana,Par,Fresno,Media Tensión (Sin Protección),7.0,2.0,True,-58.8384464172169,-27.47063381985
465,100 viv. Grupo 8 mz.A,Mediana,Par,Fresno,Preensamblado,1.0,1.0,True,-58.8309131627869,-27.5057481168549
468,Bolivar,Mediana,Impar,Fresno,Media Tensión (Sin Protección),7.0,2.0,True,-58.83924986909,-27.470665998952
469,Bolivar 907,Mediana,Impar,Fresno,Media Tensión (Sin Protección),8.0,2.0,True,-58.8393056526699,-27.4706481828369
473,Buenos Aires 1000,Mediana,Impar,Fresno,Media Tensión (Con Protección),16.0,3.0,True,-58.8406386646589,-27.4683410816539
474,España 1560,Chica,Par,Falso paraiso,Preensamblado,3.5,1.7,True,-58.8301462102679,-27.475942618632
475,Buenos Aires 979,Chica,Impar,Fresno,Media Tensión (Con Protección),4.0,1.5,True,-58.840589869698,-27.4681034290609
476,Buenos Aires 965,Chica,Impar,Fresno,Media Tensión (Con Protección),4.0,1.6,True,-58.840484967866,-27.467994525506
478,919,Chica,Impar,Palmera,Media Tensión (Con Protección),50.0,1.5,True,-58.840489412209,-27.4676445881139
479,1560,Chica,Par,Falso paraiso,Preensamblado,3.5,1.7,True,-58.830103009722,-27.475755233101
480,España 1560,Chica,Par,Falso paraiso,Preensamblado,3.5,1.7,True,-58.830131998436,-27.4758810203349
481,Junín 794,Mediana,Impar,Fresno,Media Tensión (Con Protección),25.0,2.5,True,-58.840703723665,-27.467308486061
482,Junín 772,Mediana,Par,Palmera,Media Tensión (Con Protección),4.8,2.5,True,-58.8408251777849,-27.467297550013
484,Junín 776,Mediana,Par,Palmera,Media Tensión (Sin Protección),4.8,2.5,True,-58.840898996342,-27.467288203393
485,Junín 764,Mediana,Par,Palmera,Media Tensión (Con Protección),4.8,2.5,True,-58.840981823206,-27.467292866124
486,Junín 760,Mediana,Par,Palmera,Media Tensión (Con Protección),4.8,2.5,True,-58.84109613361,-27.467278738606
487,Rivadavia 1664,Mediana,Par,Ficus variegado,Preensamblado,11.0,2.5,True,-58.830324315854,-27.475027550699
489,Rivadavia 1658,Mediana,Par,Fresno,Preensamblado,11.0,2.0,True,-58.830489312645,-27.474983134131
442,San Martin 1106,Mediana,Par,Falso mirto,Preensamblado,0.0,2.0,True,-58.836840857618,-27.4698371472239
438,Mendoza 1158,Mediana,Par,Falso mirto,Ninguno,8.0,2.0,True,-58.835961103583,-27.470603417596
459,San Martin 1078,Mediana,Par,Falso mirto,Media Tensión (Sin Protección),7.0,2.2,True,-58.837387309051,-27.469762849651
491,Rivadavia 1630,Mediana,Par,Ficus variegado,Preensamblado,2.0,1.7,True,-58.8307342084579,-27.474979635395
492,Rivadavia 1636,Mediana,Par,Ficus variegado,Preensamblado,2.0,1.7,True,-58.830692952607,-27.47496970861
493,Tucumán 947,Mediana,Impar,Lapacho amarillo,Media Tensión (Con Protección),3.6,1.8,True,-58.841667137679,-27.4676744194099
494,Rivadavia 1630,Mediana,Par,Palmera,Preensamblado,3.5,1.7,True,-58.830785167426,-27.474967724978
495,Tucumán 949,Mediana,Impar,Tulipanero,Media Tensión (Con Protección),4.0,2.0,True,-58.841629547829,-27.4677538163889
496,Rivadavia 1620,Mediana,Par,Ficus variegado,Preensamblado,5.0,1.9,True,-58.8310040101249,-27.4749560296029
497,Tucumán 951,Mediana,Impar,Fresno,Media Tensión (Con Protección),4.0,2.0,True,-58.8416359900169,-27.4678020316199
498,Rivadavia 1620,Mediana,Par,Ficus variegado,Preensamblado,5.0,2.5,True,-58.8308683765329,-27.474962143871
499,Tucumán 957,Mediana,Impar,Pata de Buey,Media Tensión (Con Protección),4.0,2.0,True,-58.841647042365,-27.467844911208
500,Rivadavia 1565,Mediana,Impar,Ficus variegado,Preensamblado,0.0,1.9,True,-58.831621256105,-27.474830429817
501,Tucumán 975,Mediana,Impar,Fresno,Media Tensión (Con Protección),4.0,2.0,True,-58.841657700232,-27.4679173026809
502,Tucumán 990,Grande,Par,Palmera,Media Tensión (Con Protección),8.0,3.0,True,-58.8417675341829,-27.4680186192119
503,San Lorenzo 1445,Mediana,Impar,Chivato,Preensamblado,40.0,1.75,True,-58.832457088654,-27.474251178406
504,Tucumán 990,Grande,Par,Palmera,Media Tensión (Con Protección),4.0,2.7,True,-58.84178743131,-27.4681050523809
505,Tucumán 990,Grande,Par,Palmera,Media Tensión (Con Protección),4.0,2.7,True,-58.841785197006,-27.468081495651
462,La rioja 1142,Mediana,Par,Palito dulce,Media Tensión (Con Protección),7.0,2.0,True,-58.838360000259,-27.4700079801149
507,Mariano Moreno 1530,Mediana,Par,Ficus,Preensamblado,5.0,1.8,True,-58.832242543767,-27.47368317214
508,Mariano Moreno 1436,Mediana,Par,Ficus,Preensamblado,5.0,1.8,True,-58.8321613076309,-27.4737028667229
464,Bolivar 987,Mediana,Impar,Palito dulce,Media Tensión (Sin Protección),7.0,2.0,True,-58.83862,-27.47072
510,Santa Fe 1412,Mediana,Par,Fresno,Preensamblado,5.0,1.9,True,-58.831200054149,-27.4740690084369
472,Hipolito Yrigoyen 887,Mediana,Impar,Pata de Buey,Media Tensión (Con Protección),6.0,2.0,True,-58.83952,-27.46828
511,Santa Fe 1414,Mediana,Par,Fresno,Preensamblado,5.0,1.9,True,-58.8312164734529,-27.474098789161
513,Santa Fe 1484,Mediana,Par,Falso paraiso,Preensamblado,9.0,1.4,True,-58.8312890790259,-27.4747035863119
514,Santa Fe 1490,Mediana,Par,Chivato,Preensamblado,9.0,1.2,True,-58.8313018594789,-27.4747001100469
515,Moreno 296,Mediana,Par,Pata de Buey,Media Tensión (Sin Protección),4.0,5.0,True,-58.847408208544,-27.472409437092
517,282,Mediana,Par,Fresno,Alta tensión (Con Protección),4.0,12.0,True,-58.8477357316179,-27.472376318127
518,Moreno 282,Mediana,Par,Fresno,Media Tensión (Sin Protección),15.0,12.0,True,-58.8478139890849,-27.472363905924
519,Moreno 266,Mediana,Par,Fresno,Media Tensión (Sin Protección),12.0,4.0,True,-58.847881230901,-27.472360223921
520,Moreno 256,Mediana,Par,Fresno,Media Tensión (Sin Protección),4.0,12.0,True,-58.8479474367129,-27.472355987395
521,Moreno 256,Chica,Par,Fresno,Media Tensión (Sin Protección),5.0,12.0,True,-58.8480466784469,-27.4723518042479
522,Moreno 256,Chica,Par,Fresno,Media Tensión (Sin Protección),5.0,12.0,True,-58.848135460648,-27.472348815402
523,Moreno 256,Mediana,Par,Fresno,Media Tensión (Sin Protección),5.0,12.0,True,-58.8482116911859,-27.472346917784
524,Moreno 208,Mediana,Par,Fresno,Media Tensión (Sin Protección),4.0,4.0,True,-58.848291048878,-27.47233950995
525,Moreno 208,Mediana,Par,Fresno,Media Tensión (Sin Protección),4.0,4.0,True,-58.84838830452,-27.4723344284299
526,Moreno 190,Mediana,Par,Fresno,Media Tensión (Sin Protección),21.0,12.0,True,-58.8485981818189,-27.472322945805
527,Moreno 220,Mediana,Par,Fresno,Media Tensión (Sin Protección),21.0,4.0,True,-58.8487906975639,-27.4723156212989
528,Cortada Mayor Atienza Monoblock 9,Mediana,Impar,Jacarandá,Media Tensión (Sin Protección),5.0,2.0,True,-58.8489770266689,-27.4727587530699
529,Cortada Mayor Atienza Monoblock 9,Mediana,Impar,Jacarandá,Media Tensión (Sin Protección),5.0,2.0,True,-58.8489680359779,-27.4726734862729
530,Cortada Mayor Atienza Monoblock 9,Mediana,Impar,Jacarandá,Media Tensión (Sin Protección),6.0,2.0,True,-58.848960891007,-27.472604809006
531,Cortada Mayor Atienza,Mediana,Impar,Lapacho rosado,Media Tensión (Sin Protección),10.0,2.0,True,-58.8489422085609,-27.472446672351
533,Cortada Mayor Atienza,Chica,Impar,Ibirá Pitá,Media Tensión (Sin Protección),0.5,3.0,True,-58.848934390129,-27.4723527821549
538,La Rioja 1518,Chica,Par,Fresno,Ninguno,24.0,1.5,True,-58.8388248715789,-27.4743811158449
539,La Rioja 1548,Chica,Par,Pata de Buey (Nativa),Ninguno,18.0,1.5,True,-58.838863194885,-27.4748162040549
540,1568,Chica,Par,Lapacho amarillo,Ninguno,12.0,1.5,True,-58.838877293749,-27.474987837692
541,3 de abril 0917,Grande,Impar,Tipa,Media Tensión (Con Protección),9.0,4.0,True,-58.8394754991079,-27.47519014071
542,3 de abril 0907,Grande,Impar,Tipa,Media Tensión (Con Protección),9.0,4.0,True,-58.839575773272,-27.475162319823
543,Salta 1585,Mediana,Impar,Falso paraiso,Alta tensión (Con Protección),46.0,1.1,True,-58.839619874309,-27.4750227515169
544,Salta1568,Mediana,Par,Fresno,Alta tensión (Con Protección),0.0,1.9,True,-58.8397033650629,-27.4747462849469
546,Salta 1541,Mediana,Impar,Palmera,Alta tensión (Con Protección),6.0,120.0,True,-58.83957159379,-27.4746473795099
551,Rivadavia 920,Mediana,Par,Tulipanero,Alta tensión (Con Protección),0.0,1.4,True,-58.839455299495,-27.4741521818959
552,Salta  899,Mediana,Impar,Palmera,Media Tensión (Con Protección),87.0,2.2,True,-58.8396176491259,-27.474051857738
535,La Rioja 1514,Chica,Par,Falso mirto,Ninguno,5.0,1.5,True,-58.8388203714379,-27.4742930995189
553,Salta 1420,Mediana,Par,Ficus variegado,Alta tensión (Con Protección),5.0,2.2,True,-58.8396087138429,-27.473322205127
554,Salta 1420,Mediana,Par,Ficus variegado,Alta tensión (Con Protección),0.0,2.3,True,-58.839589187221,-27.473177017034
559,Salta s/n,Mediana,Par,Sin identificar,Media Tensión (Con Protección),13.0,1.8,True,-58.8395271891429,-27.472086350276
560,Salta s/n,Mediana,Par,Pata de Buey,Media Tensión (Con Protección),0.0,1.8,True,-58.8395159002909,-27.471931900232
561,Belgrano s/n,Mediana,Par,Ibirá Pitá,Media Tensión (Con Protección),6.0,1.2,True,-58.8395747957879,-27.471862785334
562,Belgrano s/n,Mediana,Par,Ibirá Pitá,Media Tensión (Con Protección),26.0,1.2,True,-58.839831272408,-27.4718501604149
563,Belgrano s/n,Mediana,Par,Ibirá Pitá,Media Tensión (Con Protección),12.0,1.2,True,-58.840070401616,-27.471825614894
564,Belgrano s/n,Mediana,Par,Lapacho rosado,Media Tensión (Con Protección),11.0,1.22,True,-58.8402411947099,-27.4717963921639
558,Salta s/n,Mediana,Par,Palito dulce,Media Tensión (Con Protección),22.0,107.0,True,-58.8395607410399,-27.472297218962
557,Salta s/n,Mediana,Par,Palito dulce,Media Tensión (Con Protección),15.0,1.8,True,-58.8395763723329,-27.47252920553
555,Salta S/n,Mediana,Par,Fresno,Media Tensión (Con Protección),11.0,1.8,True,-58.839590342176,-27.4729059577809
550,Salta 1501,Mediana,Impar,Fresno,Alta tensión (Con Protección),0.0,1.2,True,-58.8395670648129,-27.474296967914
548,Salta 1535,Mediana,Impar,Palito dulce,Alta tensión (Con Protección),6.0,1.2,True,-58.8395693382219,-27.474549263223
545,Salta 1549,Mediana,Impar,Palito dulce,Alta tensión (Con Protección),3.0,120.0,True,-58.8395705663429,-27.474666321465
512,Santa Fe 1470,Mediana,Par,Fresno,Preensamblado,9.0,1.3,True,-58.831265057096,-27.47455759002
516,Moreno 282,Mediana,Par,Albizia,Media Tensión (Sin Protección),5.0,12.0,True,-58.8476625326199,-27.4723970872099
565,Belgrano s/n,Mediana,Par,Pata de Buey,Media Tensión (Con Protección),10.0,1.2,True,-58.8403889645119,-27.471779489519
566,Belgrano s/n,Mediana,Par,Pata de Buey,Media Tensión (Con Protección),29.0,1.2,True,-58.840541425814,-27.4717624028589
567,Belgrano s/n,Mediana,Par,Ibirá Pitá,Media Tensión (Con Protección),5.0,1.2,True,-58.840666548784,-27.471750933066
568,Belgrano s/n,Mediana,Par,Ibirá Pitá,Media Tensión (Con Protección),0.0,1.2,True,-58.840794864336,-27.4717406554649
569,Belgrano s/n,Mediana,Par,Lapacho rosado,Alta tensión (Con Protección),4.0,223.0,True,-58.8410895330429,-27.471720269666
570,Belgrano 780,Mediana,Par,Fresno,Alta tensión (Con Protección),5.0,2.2,True,-58.8411224851399,-27.471709507911
571,Belgrano 762,Mediana,Par,Pata de Buey,Alta tensión (Con Protección),9.0,2.2,True,-58.84131165511,-27.4716762682149
573,Tucumán 1335,Mediana,Impar,Palmera,Alta tensión (Con Protección),6.0,1.7,True,-58.841967195308,-27.4721355364509
574,Tucumán 1341,Mediana,Impar,Ficus,Alta tensión (Con Protección),27.0,1.7,True,-58.8419724370859,-27.4721701416839
575,Tucumán 1361,Mediana,Impar,Fresno,Alta tensión (Con Protección),0.0,1.4,True,-58.841988349821,-27.4723794108099
576,Tucumán 1403,Mediana,Impar,Palmera,Alta tensión (Con Protección),0.0,1.35,True,-58.8420185681699,-27.4728414571399
577,Tucumán 1435,Mediana,Impar,Fresno,Alta tensión (Con Protección),43.0,1.3,True,-58.8420410402429,-27.4730568973219
579,Tucumán 1493,Mediana,Impar,Fresno,Alta tensión (Con Protección),8.0,1.2,True,-58.842098442484,-27.4736852690139
435,Mendoza 1196,Mediana,Par,Palito dulce,Media Tensión (Con Protección),16.0,1.7,True,-58.8360181579696,-27.4708727391985
582,Chaco 1482,Mediana,Par,Fresno,Media Tensión (Sin Protección),30.0,3.0,True,-58.847291162406,-27.473062850377
583,Chaco 1420,Mediana,Par,Fresno,Media Tensión (Sin Protección),30.0,2.0,True,-58.847307304273,-27.4727895847969
584,MBK 11,Mediana,Impar,Pata de Buey,Ninguno,6.0,2.0,True,-58.847371038774,-27.472808972072
585,Monoblock 11,Mediana,Par,Pata de Buey,Ninguno,6.0,2.0,True,-58.8474892788039,-27.472755677207
586,MBK11,Grande,Par,Fresno,Media Tensión (Sin Protección),18.0,3.0,True,-58.847349243664,-27.472891862723
588,MBK 13,Mediana,Impar,Lapacho rosado,Media Tensión (Sin Protección),80.0,2.0,True,-58.8476831586419,-27.473430490093
590,Pje Juan J. Fernández  Blanco 1580,Mediana,Impar,Ligustro,Media Tensión (Sin Protección),10.0,2.0,True,-58.84775607092,-27.473931149561
591,Pje fernandez blanco,Grande,Impar,Mora,Alta tensión (Con Protección),2.0,3.0,True,-58.847717567142,-27.474122200492
594,Avenida 3 de abril 261,Grande,Impar,Lapacho rosado,Media Tensión (Sin Protección),3.0,10.0,True,-58.847532522096,-27.474162054271
596,Fernandez Blanco,Chica,Par,Fresno,Ninguno,4.0,20.0,True,-58.847847070544,-27.474002790937
597,Pje J. Fernandez Blanco 1570,Grande,Par,Fresno,Ninguno,15.0,20.0,True,-58.847724311893,-27.4738266519059
598,Pje fernandez blanco,Chica,Par,Fresno,Ninguno,3.0,20.0,True,-58.847812473779,-27.473923801285
599,Guardiamarina y Fernando Blanco,Grande,Par,Palmera,Media Tensión (Sin Protección),6.0,6.0,True,-58.8477374066729,-27.4730065094369
600,Guardiamarina J. Ferré,Chica,Impar,Lapacho rosado,Media Tensión (Sin Protección),9.0,0.0,True,-58.8476311379289,-27.473118137854
601,Avenida 3 de abril 225,Grande,Impar,Lapacho rosado,Media Tensión (Con Protección),16.0,6.0,True,-58.84989844153,-27.4737896604269
603,Avenida 3 de abril 225,Grande,Impar,Fresno,Media Tensión (Con Protección),10.0,6.0,True,-58.8497606077569,-27.473813713003
606,Guardamarina J.Ferre (Frente sec. Deportes),Plaza,Impar,Roble sedoso,Ninguno,4.0,40.0,True,-58.848296948772,-27.472877795744
607,Guardiamarina J. Ferré ( frente a sec de deporte),Chica,Impar,Mora,Media Tensión (Sin Protección),25.0,1.7,True,-58.847930221673,-27.472934421645
609,Guardamarina J. Ferre (frente sec deportes),Chica,Impar,Níspero,Media Tensión (Sin Protección),2.0,20.0,True,-58.8484348262489,-27.472862936127
611,Guardia marina j ferré,Grande,Impar,Jacarandá,Media Tensión (Sin Protección),5.0,20.0,True,-58.848695570901,-27.472817461685
612,Guardiamarina J. Ferré ( frente a sec de deporte),Grande,Impar,Jacarandá,Ninguno,10.0,4.0,True,-58.8488997568789,-27.472801479657
613,Guardiamarina J. Ferre (frente sec deportes),Grande,Par,Jacarandá,Media Tensión (Sin Protección),10.0,4.0,True,-58.848785128221,-27.4728060313759
605,Guardia marina,Grande,Impar,Tecoma Lapachillo,Ninguno,9.0,10.0,True,-58.847726402969,-27.4729302012599
580,Tucumán 1493,Mediana,Impar,Naranjo agrio,Alta tensión (Con Protección),2.0,1.2,True,-58.842100286974,-27.473713527711
614,Avenida 3 de abril 57,Chica,Impar,Fresno,Media Tensión (Con Protección),71.0,10.0,True,-58.850274930348,-27.473765590408
581,Tucumán 1493,Mediana,Impar,Tulipanero,Alta tensión (Con Protección),1.7,1.2,True,-58.8421047599739,-27.473742568148
578,Tucumán 1275,Mediana,Impar,Tulipanero,Alta tensión (Con Protección),53.0,1.3,True,-58.8420947798899,-27.4736547549659
572,Belgrano 740,Mediana,Par,Thuja,Alta tensión (Con Protección),0.0,2.2,True,-58.8416194638469,-27.4716671361169
506,San Lorenzo 1415,Mediana,Impar,Tocon,Preensamblado,40.0,1.45,True,-58.83241897388,-27.47395365793
615,Avenida 3 de abril 57,Chica,Impar,Fresno,Media Tensión (Con Protección),6.0,10.0,True,-58.851024248042,-27.4736595443499
616,Avenida 3 de abril 57,Chica,Impar,Fresno,Media Tensión (Con Protección),6.0,10.0,True,-58.8510882703389,-27.4736501559569
617,Av 3 de abril 225,Grande,Impar,Tipa,Media Tensión (Con Protección),10.0,6.0,True,-58.8496425585549,-27.4738712205689
618,Av 3 de abril 225,Grande,Impar,Tipa,Media Tensión (Con Protección),7.5,6.0,True,-58.849559803447,-27.4738780044569
536,La Rioja 1514A,Chica,Par,Ligustro,Ninguno,5.0,1.5,True,-58.838820176245,-27.4743273987999
483,España 1510,Mediana,Par,Fresno,Preensamblado,80.0,1.4,True,-58.830035274779,-27.4751205614619
619,Mendoza 1234,Mediana,Par,Ficus,Preensamblado,7.0,2.1,True,-58.835989762289,-27.4713014438819
620,Mendoza 1236,Mediana,Par,Fresno,Preensamblado,7.0,2.1,True,-58.835983415735,-27.4713330509949
621,Mendoza 1264,Mediana,Par,Ficus variegado,Preensamblado,7.0,2.1,True,-58.8360080084309,-27.471493958448
622,Mendoza 1266,Mediana,Par,Fresno,Preensamblado,7.0,2.1,True,-58.835996720283,-27.471624267235
623,Mendoza 1274,Mediana,Par,Fresno,Preensamblado,7.0,2.1,True,-58.8360265638229,-27.4717676127249
624,Mendoza 1288,Mediana,Par,Fresno,Preensamblado,9.0,2.1,True,-58.8360496098719,-27.4720679108109
625,Pje chavez 3171,Chica,Impar,Palmera,Preensamblado,11.0,0.7,True,-58.8117331641279,-27.4753919374919
595,Av 3 de abril 291,Grande,Impar,Lapacho rosado,Media Tensión (Sin Protección),6.0,5.0,True,-58.8474990991729,-27.4741650821069
626,Colombia 1071,Mediana,Impar,Ficus,Preensamblado,4.0,2.5,True,-58.8168665679149,-27.4715621596009
627,Salta 1197,Mediana,Impar,Palito dulce,Media Tensión (Sin Protección),7.0,2.5,True,-58.839323648237,-27.4704531985719
628,Salta 1165,Chica,Impar,Fresno,Media Tensión (Sin Protección),2.3,2.5,True,-58.8393177442499,-27.4703073765549
629,Salta 1161,Chica,Impar,Pata de Buey,Media Tensión (Sin Protección),2.3,2.5,True,-58.83929529928,-27.470237491843
630,Salta 1161,Chica,Impar,Fresno,Media Tensión (Sin Protección),2.3,2.5,True,-58.839294414587,-27.4701891311089
631,3 de abril 1183,Grande,Impar,Ibirá Pitá,Media Tensión (Con Protección),8.0,1.5,True,-58.8369499282289,-27.4754953560849
632,Salta 1109,Chica,Impar,Fresno,Media Tensión (Sin Protección),7.0,2.5,True,-58.83928949863,-27.4697960431979
633,Colombia 685,Mediana,Impar,Jacarandá,Preensamblado,2.5,1.5,True,-58.816802373698,-27.466881675281
634,San martin 902,Chica,Par,Fresno,Media Tensión (Sin Protección),13.0,3.0,True,-58.8391618253429,-27.469611614024
635,San martin 910,Mediana,Par,Fresno,Media Tensión (Sin Protección),13.0,2.5,True,-58.838979565419,-27.469616957448
636,San martin 964,Mediana,Par,Palmera,Media Tensión (Sin Protección),10.0,2.5,True,-58.8386939770069,-27.4696547796209
637,San martin,Chica,Par,Palmera,Media Tensión (Sin Protección),8.0,2.6,True,-58.8384406600849,-27.469672023527
638,San martin 990,Mediana,Par,Palmera,Media Tensión (Sin Protección),8.0,2.6,True,-58.838361111002,-27.4696890075859
639,3 de abril 1175,Grande,Impar,Ibirá Pitá,Media Tensión (Sin Protección),33.0,2.0,True,-58.8370009161279,-27.475486944033
640,San Martin 990,Mediana,Par,Palmera,Media Tensión (Sin Protección),9.0,2.5,True,-58.838303750603,-27.469677040425
641,San Martin 889,Mediana,Par,Fresno,Media Tensión (Sin Protección),7.0,2.5,True,-58.8394846855199,-27.469570517059
642,San Martin 871,Mediana,Par,Fresno,Media Tensión (Sin Protección),7.0,2.5,True,-58.8396503915749,-27.469562153023
643,3 de abril 1103,Grande,Impar,Fresno,Media Tensión (Con Protección),6.3,1.2,True,-58.837440766668,-27.4754217365969
644,San Martin 843,Mediana,Par,Fresno,Ninguno,10.0,2.5,True,-58.8401675489179,-27.469517268
645,3de abril 1108,Grande,Impar,Fresno,Media Tensión (Con Protección),6.0,2.1,True,-58.837385424125,-27.475431586847
646,San Martin 837,Mediana,Par,Mora de Papel,Ninguno,10.0,2.5,True,-58.840234422308,-27.469500964686
647,San juan 1595,Chica,Impar,Fresno,Media Tensión (Sin Protección),9.0,1.3,True,-58.8375144971329,-27.4753985412699
652,Buenos Aires 1144,Grande,Impar,Fresno,Ninguno,12.0,2.5,True,-58.8406767412179,-27.469905822794
653,Buenos Aires 1144,Grande,Impar,Jacarandá,Ninguno,6.0,3.0,True,-58.8406558220669,-27.470035624623
654,Buenos Aires 1153,Grande,Impar,Chivato,Ninguno,4.0,3.0,True,-58.84065280344,-27.470112903863
657,Buenos aires 1178,Grande,Impar,Chivato,Ninguno,9.0,3.0,True,-58.840657223949,-27.470215452512
660,Buenos aires 1192,Grande,Impar,Pata de Buey (Nativa),Ninguno,6.0,3.0,True,-58.840688070831,-27.4704355022809
661,Buenos aires 1192,Grande,Impar,Pata de Buey (Nativa),Ninguno,7.0,3.0,True,-58.8407000031229,-27.470484474228
663,Bolívar  800,Grande,Par,Naranjo agrio,Media Tensión (Sin Protección),8.0,3.0,True,-58.8406162412909,-27.4705093344129
665,Bolívar 800-900,Chica,Par,Fresno,Media Tensión (Sin Protección),6.0,3.0,True,-58.840181488836,-27.4705420284619
648,San Martin 831,Mediana,Par,Falso mirto,Ninguno,13.0,2.5,True,-58.8403419877059,-27.4694861442199
666,Bolivar 800/900,Grande,Impar,Chivato,Ninguno,5.0,2.0,True,-58.840099770686,-27.470572183297
668,Bolivar 800/900,Grande,Impar,Palmera,Ninguno,5.0,2.0,True,-58.839966026831,-27.470586873883
669,Bolivar 800 - 900,Grande,Impar,Chivato,Ninguno,5.0,3.0,True,-58.839974167048,-27.470525360698
670,Bolivar 800/900,Grande,Impar,Ibirá Pitá,Ninguno,7.0,2.0,True,-58.839921717125,-27.470596723635
724,Moreno 1371,Chica,Impar,Pata de Buey,Alta tensión (Con Protección),12.0,2.0,True,-58.8349373091089,-27.473292207907
780,San Luis 1583,Grande,Par,Fresno,Media Tensión (Con Protección),9.0,2.5,True,-58.843496211083,-27.4745590214049
672,Bolivar 800 - 900,Grande,Par,Ibirá Pitá,Ninguno,4.0,3.0,True,-58.839896993979,-27.4705947076569
674,Bolovar 800 - 900,Grande,Impar,Ibirá Pitá,Ninguno,4.0,3.0,True,-58.839799957152,-27.4705785174319
675,Bolivar 800/900,Grande,Impar,Ibirá Pitá,Ninguno,5.0,2.0,True,-58.839749886295,-27.470569952032
678,Bolovar 800 - 900,Grande,Impar,Ibirá Pitá,Ninguno,6.0,3.0,True,-58.8395634943849,-27.47060296291
679,Mariano moreno sin numero,Mediana,Impar,Lapacho rosado,Ninguno,3.0,1.8,True,-58.8396573300409,-27.472955653985
656,1514,Mediana,Par,Pata de Buey,Alta tensión (Con Protección),5.3,2.3,True,-58.83639,-27.4746699999999
658,Mendoza 1420,Grande,Par,Pata de Buey,Alta tensión (Con Protección),5.3,1.4,True,-58.8363999999999,-27.4747799999999
662,Mendoza 1570,Grande,Par,Ficus,Alta tensión (Con Protección),13.2,1.35,True,-58.8364619999999,-27.475253
680,Mariano moreno s/n,Chica,Impar,Crespón,Alta tensión (Con Protección),7.0,1.8,True,-58.839744234764,-27.4729397412329
681,Moreno s/n,Chica,Impar,Pata de Buey,Ninguno,4.0,1.8,True,-58.8397953487159,-27.4729233037069
682,Moreno s/n,Chica,Impar,Crespón,Ninguno,4.0,1.8,True,-58.8397953487159,-27.4729233037069
685,Moreno s/n,Chica,Impar,Paraíso,Ninguno,6.0,1.8,True,-58.8397953487159,-27.4729233037069
686,Mariano moreno s/n,Mediana,Impar,Lapacho rosado,Ninguno,6.0,1.8,True,-58.8399527457509,-27.472906392251
687,Mariano moreno 876,Mediana,Par,Fresno,Alta tensión (Con Protección),44.5,1.85,True,-58.839957503015,-27.4729838773129
688,Mariano moreno s/n,Mediana,Impar,Pata de Buey,Ninguno,7.0,1.8,True,-58.8400349338799,-27.4728926863399
689,Mariano moreno s/n,Mediana,Impar,Lapacho rosado,Ninguno,7.0,1.8,True,-58.840098497842,-27.472889336461
690,Mariano moreno,Mediana,Impar,Fresno,Ninguno,4.0,1.8,True,-58.8401504427669,-27.4728880358619
691,Córdoba 1301,Chica,Impar,Pata de Buey,Alta tensión (Con Protección),3.5,1.5,True,-58.834873158595,-27.4724057410339
692,Mariano moreno s/n,Mediana,Impar,Pata de Buey,Ninguno,5.0,1.8,True,-58.8401956608329,-27.472890135288
693,Córdoba 1307,Chica,Impar,Pata de Buey,Alta tensión (Con Protección),3.5,1.5,True,-58.8348913045429,-27.4725774194769
694,Mariano moreno s/n,Mediana,Impar,Lapacho rosado,Ninguno,4.0,1.8,True,-58.840246284404,-27.472888679006
695,Mariano moreno s/n,Mediana,Impar,Fresno,Ninguno,6.0,1.8,True,-58.8402995865849,-27.4728823054479
696,Belgrano 1308,Chica,Par,Limpiatubos,Alta tensión (Con Protección),100.0,1.87,True,-58.8346604854409,-27.4723704121399
697,Mariano moreno s/n,Mediana,Impar,Fresno,Ninguno,0.0,1.8,True,-58.8403489546209,-27.4728771052289
698,Córdoba 1321,Chica,Impar,Fresno,Alta tensión (Con Protección),13.0,1.8,True,-58.834865057404,-27.4729075318259
700,Cordoba 1325,Chica,Impar,Ficus,Alta tensión (Con Protección),3.3,2.0,True,-58.8348954428449,-27.4730806856779
702,Córdoba 1361,Chica,Impar,Fresno,Alta tensión (Con Protección),40.4,1.8,True,-58.834933904397,-27.4732203696109
703,Mariano moreno 814,Mediana,Par,Fresno,Alta tensión (Con Protección),0.0,1.9,True,-58.840737696898,-27.472927973756
704,Córdoba 1361,Chica,Impar,Jazmín magno,Alta tensión (Con Protección),5.2,1.6,True,-58.834864172774,-27.473289647331
705,AV 3 DE ABRIL 745,Grande,Impar,Lapacho rosado,Media Tensión (Sin Protección),3.5,3.5,True,-58.841615344161,-27.4748644857889
706,Buenos Aires s/n,Mediana,Impar,Lapacho rosado,Alta tensión (Con Protección),5.5,1.45,True,-58.8409380647349,-27.472822620093
707,Cordoba 1371,Chica,Impar,Fresno,Alta tensión (Con Protección),4.4,1.6,True,-58.8349373091089,-27.473292207907
708,Buenos Aires s/n,Mediana,Impar,Lapacho rosado,Alta tensión (Con Protección),6.0,1.45,True,-58.8409285148799,-27.472767873586
709,Córdoba 1381,Chica,Impar,Palito dulce,Alta tensión (Con Protección),9.2,1.6,True,-58.8349373091089,-27.473292207907
710,Buenos aires 1568,Mediana,Par,Jacarandá,Media Tensión (Con Protección),30.0,2.5,True,-58.841198589206,-27.4746732942419
711,Córdoba 1393,Chica,Impar,Limpiatubos,Alta tensión (Con Protección),13.2,1.8,True,-58.8349373091089,-27.473292207907
713,Buenos Aires s/n,Mediana,Impar,Lapacho rosado,Alta tensión (Con Protección),8.0,1.45,True,-58.8409268703289,-27.4726887575249
714,Moreno 1331,Chica,Impar,Ligustro,Alta tensión (Con Protección),16.0,1.6,True,-58.8349373091089,-27.473292207907
715,Buenos Aires 1514,Mediana,Par,Limpiatubos,Media Tensión (Con Protección),4.0,2.5,True,-58.8412051239239,-27.4742279412969
716,Buenos Aires,Mediana,Impar,Lapacho rosado,Alta tensión (Con Protección),5.0,1.45,True,-58.8409250859509,-27.472646325475
717,Moreno 1333,Chica,Impar,Fresno,Alta tensión (Con Protección),16.0,1.4,True,-58.8349373091089,-27.473292207907
718,Buenos Aires 1508,Grande,Par,Fresno,Media Tensión (Con Protección),4.0,2.5,True,-58.841137739403,-27.4740837616379
719,Moreno 1349,Chica,Impar,Ligustro,Alta tensión (Con Protección),6.5,2.1,True,-58.8349373091089,-27.473292207907
683,Mariano moreno 898,Mediana,Par,Falso mirto,Alta tensión (Con Protección),11.0,1.9,True,-58.839652780052,-27.47301482049
684,Mariano moreno 884,Mediana,Par,Falso mirto,Alta tensión (Con Protección),15.0,1.8,True,-58.83980173299,-27.473000888129
699,Mariano moreno 842,Mediana,Par,Falso mirto,Alta tensión (Con Protección),4.0,1.94,True,-58.840310688063,-27.4729550420919
701,Mariano moreno 840,Mediana,Par,Falso mirto,Alta tensión (Con Protección),25.0,1.9,True,-58.840450947152,-27.4729394686129
720,Buenos Aires s/n,Mediana,Impar,Lapacho rosado,Alta tensión (Con Protección),14.0,1.45,True,-58.840921499057,-27.4725782824179
721,Moreno 1351,Chica,Impar,Ligustro,Alta tensión (Con Protección),6.0,2.5,True,-58.8349373091089,-27.473292207907
722,Buenos Aires s/n,Mediana,Impar,Lapacho rosado,Alta tensión (Con Protección),9.0,1.45,True,-58.840912334202,-27.472513347703
723,Rivadavia 748,Grande,Par,Ñangapirí,Media Tensión (Con Protección),10.0,3.0,True,-58.8416446053309,-27.473980950958
725,Buenos Aires s/n,Mediana,Impar,Lapacho rosado,Alta tensión (Con Protección),6.0,1.45,True,-58.8408997450859,-27.472340847908
727,Buenos Aires s/n,Mediana,Impar,Lapacho rosado,Alta tensión (Con Protección),6.0,1.45,True,-58.840888290435,-27.4722046633669
728,Moreno 1379,Chica,Impar,Palmera,Alta tensión (Con Protección),16.0,1.5,True,-58.834019819101,-27.4733405808969
729,Rivadavia 720,Grande,Par,Fresno,Alta tensión (Con Protección),15.5,3.0,True,-58.841946954222,-27.4739060235679
730,Buenos Aires s/n,Mediana,Impar,Lapacho rosado,Alta tensión (Con Protección),6.0,1.45,True,-58.840870809082,-27.4721053635059
731,Moreno 1381,Chica,Impar,Fresno,Alta tensión (Con Protección),11.0,1.8,True,-58.833858120279,-27.4733581951999
732,Tucumán 1529,Grande,Impar,Ficus,Alta tensión (Con Protección),15.0,3.0,True,-58.842148155893,-27.4741661422749
733,Tucumán 1521,Mediana,Impar,Ficus,Media Tensión (Sin Protección),12.0,2.0,True,-58.8417808555149,-27.4739711892619
735,Buenos Aires s/n,Mediana,Impar,Lapacho rosado,Alta tensión (Con Protección),6.0,1.45,True,-58.840849617137,-27.4719602992059
736,Catamarca 1370,Chica,Par,Fresno,Alta tensión (Con Protección),4.5,1.3,True,-58.8337503886589,-27.473295539654
737,Buenos Aires s/n,Mediana,Impar,Pata de Buey,Alta tensión (Con Protección),0.0,1.45,True,-58.8408276626849,-27.471810518097
738,Catamarca 1370,Chica,Par,Fresno,Alta tensión (Con Protección),4.4,1.3,True,-58.833755752995,-27.473008548626
742,Don Bosco 1171,Grande,Impar,Falso paraiso,Preensamblado,0.4,0.8,True,-58.849362334052,-27.469455290858
743,Buenos Aires 1306,Grande,Par,Fresno,Alta tensión (Con Protección),7.5,2.19,True,-58.8409211962059,-27.4717852931179
744,Buenos Aires 1326,Mediana,Par,Fresno,Alta tensión (Con Protección),7.0,2.19,True,-58.840932535784,-27.4719515785259
745,Tucumán 1510,Grande,Par,Ficus variegado,Alta tensión (Con Protección),4.0,3.0,True,-58.8420682633909,-27.4728873508349
746,Tucumán 1510,Grande,Par,Ficus variegado,Media Tensión (Sin Protección),4.0,2.5,True,-58.8421813719009,-27.4739222123489
747,Tucumán 1510,Chica,Par,Timbó Blanco,Alta tensión (Con Protección),2.0,3.0,True,-58.842075381178,-27.4729446376159
748,Catamarca 1301,Chica,Impar,Palmera,Alta tensión (Con Protección),2.5,2.0,True,-58.833525138767,-27.472530195213
749,Buenos Aires,Mediana,Par,Crespón,Alta tensión (Con Protección),9.0,2.2,True,-58.840942940477,-27.472092601743
750,Catamarca 1301,Chica,Impar,Palmera,Alta tensión (Con Protección),2.5,2.0,True,-58.8335244058179,-27.47262578339
751,Catamarca 1301,Chica,Impar,Palmera,Alta tensión (Con Protección),2.5,2.0,True,-58.8335496064209,-27.4728516333019
752,Don Bosco 117,Grande,Impar,Fresno,Preensamblado,4.0,4.0,True,-58.849394772631,-27.4692604273109
753,Tucumán 1510,Grande,Par,Crespón,Media Tensión (Sin Protección),3.0,3.0,True,-58.8421813719009,-27.4739222123489
754,Buenos Aires 1338,Mediana,Par,Fresno,Alta tensión (Con Protección),6.0,2.15,True,-58.8410006143789,-27.472508942507
755,Catamarca 1301,Chica,Impar,Palmera,Alta tensión (Con Protección),2.5,2.0,True,-58.8335754120849,-27.472973980849
756,Tucumán 1536,Grande,Par,Limpiatubos,Alta tensión (Con Protección),23.0,3.0,True,-58.8422103782369,-27.474384337524
757,Catamarca 1313,Chica,Impar,Ficus,Alta tensión (Con Protección),7.0,1.1,True,-58.833571479866,-27.4731120179109
758,Don Bosco 1171,Grande,Impar,Ficus,Preensamblado,4.0,4.0,True,-58.849390603426,-27.469349182251
759,Catamarca 1315,Chica,Impar,Ficus,Alta tensión (Con Protección),9.0,1.1,True,-58.833580057077,-27.473204424626
760,Buenos Aires  1338,Mediana,Par,Palito dulce,Alta tensión (Con Protección),71.0,2.2,True,-58.840981216773,-27.472246848889
761,Don Bosco 1171,Grande,Impar,Palito dulce,Preensamblado,4.0,4.0,True,-58.8493924402639,-27.4692857451989
762,San Martin 889,Grande,Impar,Palito dulce,Alta tensión (Con Protección),19.0,2.5,True,-58.839687095655,-27.4694774790669
764,Tucumán 1594,Grande,Par,Chivato,Alta tensión (Con Protección),25.0,3.0,True,-58.8422655091859,-27.47475759796
765,Tucumán 1594,Grande,Par,Lapacho rosado,Media Tensión (Con Protección),5.5,3.0,True,-58.842283313216,-27.474806559366
766,Buenos Aires 1394,Mediana,Par,Fresno,Media Tensión (Sin Protección),0.0,2.2,True,-58.841029839301,-27.4727738304579
767,Catamarca 1333,Chica,Impar,Pata de Buey,Alta tensión (Con Protección),4.0,2.1,True,-58.833594325301,-27.4734055790369
768,Don bosco 1151,Grande,Impar,Fresno,Preensamblado,6.0,4.0,True,-58.849402212286,-27.469219328729
769,Catamarca 1355,Chica,Impar,Fresno,Alta tensión (Con Protección),27.0,2.1,True,-58.833570671838,-27.473428625482
770,Av. 3 de abril 700,Grande,Impar,Chivato,Alta tensión (Con Protección),5.0,4.0,True,-58.8423486576649,-27.474813966944
772,Catamarca 1377,Chica,Impar,Ligustro,Alta tensión (Con Protección),34.0,1.5,True,-58.8335397937379,-27.473465890347
773,Av. 3 de abril 1031,Grande,Impar,Pata de Buey,Media Tensión (Con Protección),0.0,3.1,True,-58.8385150925209,-27.47527693149
774,Mariano moreno s/n,Mediana,Impar,Pata de Buey,Alta tensión (Con Protección),16.0,1.52,True,-58.841708521523,-27.4727720405559
775,Don Bosco 1109,Grande,Impar,Fresno,Preensamblado,5.0,4.0,True,-58.8494303538539,-27.469121134106
776,San Martin 859,Grande,Impar,Naranjo agrio,Alta tensión (Con Protección),6.0,2.65,True,-58.8398326391129,-27.4694378569159
777,Catamarca 1377,Chica,Impar,Ligustro,Alta tensión (Con Protección),4.0,1.2,True,-58.833605760965,-27.473444586431
778,San luis 1581,Grande,Impar,Fresno,Alta tensión (Con Protección),9.0,3.0,True,-58.8435247121739,-27.474486028386
779,Mariano moreno s/n,Mediana,Impar,Pata de Buey,Alta tensión (Con Protección),16.0,1.51,True,-58.8419394672099,-27.4727421091599
781,Catamarca 1383,Chica,Impar,Ligustro,Alta tensión (Con Protección),11.0,1.8,True,-58.8335880042159,-27.473449583379
782,Don Bosco 1109,Grande,Impar,Fresno,Preensamblado,5.0,4.0,True,-58.8494412282179,-27.469090264758
726,Rivadavia 730,Grande,Par,Falso mirto,Media Tensión (Con Protección),10.0,3.0,True,-58.8417808555149,-27.4739711892619
784,San luis 1531,Grande,Impar,Ficus variegado,Alta tensión (Con Protección),15.0,3.0,True,-58.843490506837,-27.4741197199189
785,Mariano moreno 730,Mediana,Par,Fresno,Alta tensión (Con Protección),3.0,1.35,True,-58.841672937235,-27.472859392606
786,San Martin 865,Grande,Impar,Naranjo agrio,Alta tensión (Con Protección),8.0,2.65,True,-58.8397514908359,-27.469459632045
787,San Lorenzo 1378,Chica,Par,Ligustro,Alta tensión (Con Protección),11.0,1.5,True,-58.8325095765849,-27.473323033102
788,San Luis 1529,Grande,Impar,Ficus,Media Tensión (Con Protección),15.0,3.0,True,-58.8434301522449,-27.474051033559
789,La Rioja 1599,Mediana,Impar,Chivato,Alta tensión (Con Protección),20.0,1.0,True,-58.8388244117009,-27.475181511561
791,San Martín 162,Chica,Par,Crespón,Preensamblado,1.5,1.5,True,-58.848634030653,-27.4689739547009
771,Hipolito Yrigoyen 100,Mediana,Impar,Thuja,Alta tensión (Con Protección),2.0,4.3,True,-58.85185,-27.4675699999999
792,Mariano moreno 738,Mediana,Par,Fresno,Alta tensión (Con Protección),2.5,1.35,True,-58.841579726269,-27.472863876629
794,Mariano moreno 748,Mediana,Par,Crespón,Alta tensión (Con Protección),10.0,1.4,True,-58.841506869085,-27.472870202675
795,San Martin 859,Grande,Impar,Naranjo agrio,Alta tensión (Con Protección),6.0,2.6,True,-58.839924728142,-27.469428669713
796,Rivadavia 608,Mediana,Par,Crespón,Alta tensión (Con Protección),15.0,2.5,True,-58.8433939061619,-27.473823357339
798,Rivadavia 612,Grande,Par,Fresno,Media Tensión (Con Protección),15.0,2.5,True,-58.843186020064,-27.473903140198
799,San Martín 170,Grande,Par,Tulipanero,Preensamblado,26.0,250.0,True,-58.848305299277,-27.468984267197
800,Mariano moreno 748,Mediana,Par,Crespón,Alta tensión (Con Protección),3.0,1.5,True,-58.8414451350489,-27.4728752418199
802,San Juan 1289,Mediana,Impar,Lapacho rosado,Ninguno,6.0,1.6,True,-58.8371778859389,-27.471993710123
803,Belgrano 1484,Chica,Par,Ficus variegado,Alta tensión (Con Protección),4.0,1.2,True,-58.8328028264599,-27.4726115449389
804,Mariano moreno 764,Mediana,Par,Fresno,Alta tensión (Con Protección),8.0,1.3,True,-58.8413737226969,-27.472877660428
805,Rivadavia 1577,Chica,Impar,Limpiatubos,Ninguno,20.0,1.23,True,-58.838818562105,-27.4751068258619
808,Mariano moreno 770,Mediana,Par,Limpiatubos,Alta tensión (Con Protección),4.0,1.4,True,-58.841291133216,-27.4728873148639
810,Rivadavia 612,Mediana,Par,Ambaí,Alta tensión (Con Protección),5.0,3.0,True,-58.8432410066139,-27.473833869724
811,Rivadavia 622,Grande,Par,Sauce llorón,Media Tensión (Con Protección),15.0,3.5,True,-58.8430533338969,-27.4738954293179
812,San Martín 154,Chica,Par,Crespón,Preensamblado,1.0,2.0,True,-58.8483801159029,-27.46893778791
813,Pago largo 1140,Mediana,Par,Mango,Preensamblado,4.0,2.0,True,-58.848233650159,-27.469258240262
814,Mariano moreno 770,Mediana,Par,Crespón,Alta tensión (Con Protección),23.0,1.5,True,-58.8412297724979,-27.4728893907239
815,Rivadavia 638,Mediana,Par,Sauce llorón,Alta tensión (Con Protección),4.0,3.5,True,-58.842727793091,-27.473877119175
816,Rivadavia 638,Grande,Par,Crespón,Media Tensión (Con Protección),10.0,3.0,True,-58.8430533338969,-27.4738954293179
819,Mariano moreno 192,Mediana,Par,Sauce criollo,Media Tensión (Con Protección),0.0,1.4,True,-58.8410773904889,-27.4729015960209
820,San Martin 831,Grande,Impar,Palmera,Alta tensión (Con Protección),0.3,2.55,True,-58.8402632524689,-27.469490023312
822,Rivadavia 682,Grande,Par,Liquidambar,Media Tensión (Con Protección),50.0,3.0,True,-58.842315749144,-27.4739141299079
823,Belgrano 1420,Chica,Par,Palmera,Alta tensión (Con Protección),47.0,1.8,True,-58.833060338735,-27.4725376567499
824,Rivadavia 682,Mediana,Par,Ligustro,Alta tensión (Con Protección),2.0,3.0,True,-58.842328896745,-27.473881017682
825,Pago Largo 1144,Grande,Par,Mango,Preensamblado,2.0,2.5,True,-58.8482580678779,-27.4694308454039
826,Buenos Aires 1410,Mediana,Par,Palmera,Media Tensión (Con Protección),8.0,1.7,True,-58.8410420519519,-27.473015341197
827,Pago Largo 1144,Grande,Par,Mango,Preensamblado,4.0,2.5,True,-58.848257758391,-27.4693836084259
828,Belgrano 1404,Chica,Par,Palmera,Alta tensión (Con Protección),16.0,3.0,True,-58.833198037602,-27.472511862564
829,San Martin 831,Grande,Impar,Palmera,Alta tensión (Con Protección),0.3,2.6,True,-58.8402852890369,-27.4694981837579
830,Belgrano 1404,Chica,Par,Palmera,Alta tensión (Con Protección),6.0,3.0,True,-58.833419186883,-27.472462179371
831,Buenos Aires 1432,Mediana,Par,Falso paraiso,Alta tensión (Con Protección),16.0,3.44,True,-58.8410614190419,-27.4731473818909
833,Don Bosco 1148,Grande,Par,Palito dulce,Preensamblado,15.0,1.5,True,-58.849538409814,-27.469299293109
834,Buenos Aires 1438,Mediana,Par,Ficus variegado,Alta tensión (Con Protección),18.0,2.7,True,-58.8410992629899,-27.473326679976
836,Buenos Aires 1450,Mediana,Par,Ficus variegado,Alta tensión (Con Protección),8.0,2.7,True,-58.8411002623869,-27.4734924231199
838,Don Bosco 1136,Grande,Par,Sauce criollo,Preensamblado,2.0,2.0,True,-58.8495185663359,-27.4691689003959
839,San Martin 819,Grande,Impar,Palmera,Alta tensión (Con Protección),4.0,3.6,True,-58.8402924552979,-27.4694226658889
841,Buenos Aires 1456,Mediana,Par,Lapacho rosado,Alta tensión (Con Protección),6.0,1.2,True,-58.8411054094109,-27.473606279881
842,Don Bosco 1136,Grande,Par,Sauce criollo,Preensamblado,2.0,2.0,True,-58.849523507264,-27.4691400341009
845,Don Bosco 1120,Grande,Par,Fresno,Preensamblado,2.0,2.0,True,-58.8495046869429,-27.4690599649099
846,Buenos Aires 1476,Mediana,Par,Fresno,Alta tensión (Con Protección),2.4,2.2,True,-58.8411057898379,-27.4737024038199
790,San luis 1529,Grande,Impar,Falso mirto,Alta tensión (Con Protección),2.5,3.0,True,-58.843482788247,-27.4739458262769
807,Pago Largo 1130,Mediana,Par,Falso mirto,Preensamblado,5.0,1.5,True,-58.848246394122,-27.469203293603
806,San Martin 837,Grande,Impar,Lluvia de oro,Alta tensión (Con Protección),20.0,2.7,True,-58.8399674275679,-27.4694202650109
847,Catamarca 1498,Chica,Par,Fresno,Alta tensión (Con Protección),70.0,1.59,True,-58.8337999999999,-27.47419
801,Hipolito Yrigoyen 100,Mediana,Impar,Tipa,Alta tensión (Con Protección),1.0,4.0,True,-58.8517999999999,-27.4675599999999
844,Hipolito Yrigoyen,Chica,Impar,Chivato,Alta tensión (Con Protección),8.0,2.0,True,-58.85168,-27.4675699999999
849,Buenos Aires 1478,Mediana,Par,Ficus,Alta tensión (Con Protección),16.0,2.23,True,-58.841106561467,-27.4737148358299
851,Buenos Aires 1492,Mediana,Par,Pata de Buey,Alta tensión (Con Protección),2.0,2.3,True,-58.84112495978,-27.473803728399
852,San Martin 815,Grande,Impar,Palmera,Alta tensión (Con Protección),4.0,3.05,True,-58.8403572472769,-27.469412970351
855,San Martín 72,Mediana,Par,Fresno,Preensamblado,20.0,2.0,True,-58.8499454590159,-27.468874843495
853,La Rioja 1515,Mediana,Impar,Palta,Alta tensión (Con Protección),3.2,1.5,True,-58.8387143484389,-27.474330638371
856,Buenos Aires 1492,Mediana,Par,Crespón,Alta tensión (Con Protección),8.0,2.3,True,-58.841116245019,-27.473837837868
857,Rivadavia 1379,Chica,Impar,Palmera,Alta tensión (Con Protección),2.0,2.0,True,-58.83320410235,-27.4734259761869
859,San Martin 815,Grande,Impar,Palmera,Alta tensión (Con Protección),0.25,3.05,True,-58.8403891196759,-27.4694123000579
860,Buenos Aires 1494/98,Mediana,Par,Lluvia de oro,Alta tensión (Con Protección),0.0,2.4,True,-58.8411301539929,-27.4738951246729
862,San Martin 809,Grande,Impar,Palmera,Alta tensión (Con Protección),5.0,3.0,True,-58.840556878576,-27.4694045829479
863,Rivadavia 1343,Chica,Impar,Ficus,Alta tensión (Con Protección),25.0,2.0,True,-58.834293156999,-27.4744738830539
864,Rivadavia 1315,Chica,Impar,Ligustro,Alta tensión (Con Protección),25.0,1.8,True,-58.834825284197,-27.474412449233
877,Córdoba  1419,Chica,Impar,Aguaribay,Alta tensión (Con Protección),27.0,1.8,True,-58.835019783417,-27.4736013037489
866,Rivadavia 705,Mediana,Impar,Jacarandá,Media Tensión (Con Protección),17.0,1.1,True,-58.842015249172,-27.473846241229
867,Córdoba 1491,Chica,Impar,Ligustro,Alta tensión (Con Protección),5.0,2.1,True,-58.8350399618029,-27.4742271101509
868,Rivadavia 1481,Chica,Impar,Fresno,Alta tensión (Con Protección),37.0,2.1,True,-58.8350399618029,-27.4742271101509
869,Rivadavia 717,Mediana,Impar,Palito dulce,Media Tensión (Sin Protección),42.0,86.0,True,-58.841882195489,-27.4738673618639
870,Córdoba 1439,Chica,Impar,Aguaribay,Alta tensión (Con Protección),2.0,1.6,True,-58.8350316969089,-27.4740208096969
871,Rivadavia 769,Mediana,Impar,Fresno,Media Tensión (Con Protección),2.8,2.17,True,-58.8414048241809,-27.473911603605
872,Rivadavia 1084,Mediana,Par,Palito dulce,Alta tensión (Con Protección),30.0,1.0,True,-58.837737178905,-27.474351977355
873,Córdoba 1439,Chica,Impar,Fresno,Alta tensión (Con Protección),1.5,1.6,True,-58.835047400964,-27.4738257598889
874,Rivadavia 771,Mediana,Impar,Fresno,Media Tensión (Con Protección),20.0,2.25,True,-58.841292919151,-27.473925793753
875,Córdoba 1435,Chica,Impar,Fresno,Alta tensión (Con Protección),2.0,1.6,True,-58.8350615264629,-27.473880298733
879,San juan 1570,Mediana,Par,Paraíso,Alta tensión (Con Protección),2.1,1.8,True,-58.837556541855,-27.4750945501909
882,Moreno 1308,Chica,Par,Ficus,Alta tensión (Con Protección),52.0,2.0,True,-58.834722661027,-27.4735478121709
883,Buenos Aires s/n,Mediana,Impar,Palito dulce,Media Tensión (Sin Protección),3.0,1.92,True,-58.841059854827,-27.474225318847
884,San Martín 18,Chica,Par,Falso paraiso,Preensamblado,35.0,2.0,True,-58.850576884348,-27.4688322800979
885,Moreno 1342,Chica,Par,Pata de Buey,Alta tensión (Con Protección),18.0,2.0,True,-58.8344746076939,-27.4735817450259
887,San Juan 1572,Mediana,Par,Tulipanero,Alta tensión (Con Protección),2.1,1.5,True,-58.8375549958689,-27.4751335005759
888,Moreno 1362,Chica,Par,Pata de Buey,Alta tensión (Con Protección),12.0,1.6,True,-58.834292318201,-27.4736161461929
889,Buenos Aires s/n,Mediana,Impar,Fresno,Media Tensión (Con Protección),7.3,1.93,True,-58.841060654103,-27.474311817347
891,Buenos Aires 1551,Mediana,Impar,Ligustro,Media Tensión (Con Protección),9.0,1.9,True,-58.841065872906,-27.474413589809
892,Moreno 1374,Chica,Par,Palmera,Alta tensión (Con Protección),1.0,1.8,True,-58.8339863940719,-27.47360607171
894,Buenos Aires 1557,Mediana,Impar,Ligustro,Media Tensión (Con Protección),13.0,1.9,True,-58.841069904519,-27.474479170976
895,Moreno 1378,Chica,Par,Palmera,Alta tensión (Con Protección),9.0,1.8,True,-58.833890263152,-27.4736518938449
897,Buenos Aires s/n,Mediana,Impar,Palmera,Media Tensión (Con Protección),3.0,2.36,True,-58.8410766321339,-27.4746771565599
899,Buenos Aires s/n,Mediana,Impar,Palmera,Media Tensión (Con Protección),4.0,2.36,True,-58.8410775384859,-27.474719778909
900,San Martin 745,Mediana,Impar,Moringa,Alta tensión (Con Protección),3.0,2.3,True,-58.841387009464,-27.469322415619
902,Buenos Aires s/n,Mediana,Impar,Palmera,Media Tensión (Con Protección),1.4,2.3,True,-58.841083085065,-27.474757495102
903,Pje Virgen María Auxiliadora 03,Mediana,Impar,Falso paraiso,Preensamblado,50.0,2.0,True,-58.850672149826,-27.469290437146
881,San Martín 40,Chica,Par,Falso mirto,Preensamblado,1.0,2.0,True,-58.848196202371,-27.468949004186
886,San Martin 749,Mediana,Impar,Falso mirto,Alta tensión (Con Protección),5.0,2.4,True,-58.8412653963609,-27.469328910009
893,Rivadavia,Mediana,Par,Falso mirto,Alta tensión (Con Protección),30.0,1.4,True,-58.837982552347,-27.474320110107
898,Padre Borgatti 10,Grande,Par,Falso mirto,Preensamblado,6.0,3.0,True,-58.8507573958199,-27.4689258123529
905,Buenos Aires s/n,Mediana,Impar,Palmera,Media Tensión (Con Protección),2.95,2.3,True,-58.8410851941929,-27.474773314
854,Rivadavia 1401,Chica,Impar,Fresno,Alta tensión (Con Protección),40.0,1.6,True,-58.8338399999999,-27.4745699999999
861,Rivadavia 13,Chica,Impar,Fresno,Alta tensión (Con Protección),30.0,2.0,True,-58.8343999999999,-27.47456
858,Rivadavia 1371,Chica,Impar,Paraíso,Alta tensión (Con Protección),18.0,1.3,True,-58.8343199999999,-27.4745799999999
906,Pje Virgen María Auxiliadora 55,Grande,Impar,Ficus variegado,Preensamblado,25.0,2.0,True,-58.8500999041679,-27.469319662284
907,San Martin 719,Mediana,Impar,Ficus,Alta tensión (Con Protección),17.0,2.15,True,-58.841577508591,-27.469291578387
908,Pje Virgen María Auxiliadora 71,Grande,Impar,Ficus variegado,Preensamblado,3.0,2.0,True,-58.8499877735039,-27.4693317511129
909,Buenos Aires s/n,Mediana,Impar,Palmera,Media Tensión (Con Protección),0.4,2.4,True,-58.841082881458,-27.47480279196
910,Buenos Aires s/n,Mediana,Impar,Palmera,Media Tensión (Con Protección),0.0,2.4,True,-58.841083239223,-27.474809299017
912,Pje Virgen María Auxiliadora  83,Mediana,Impar,Mora,Preensamblado,5.0,2.0,True,-58.8497469589519,-27.4693325507229
880,Rivadavia 777,Mediana,Impar,Laurel,Media Tensión (Con Protección),0.0,2.0,True,-58.841176680827,-27.4739353535699
913,Pje María Auxiliadora y Don Bosco,Chica,Impar,Jacarandá,Preensamblado,5.0,2.0,True,-58.849614984768,-27.469368093591
914,Pago Largo 1185,Mediana,Impar,Ficus variegado,Preensamblado,2.0,3.0,True,-58.8481628474309,-27.4696602290839
915,Pago Largo 1185,Mediana,Impar,Ficus variegado,Preensamblado,2.0,2.0,True,-58.848156090514,-27.469576960457
916,Pago Largo 1185,Grande,Impar,Ficus variegado,Preensamblado,5.0,3.0,True,-58.848148886386,-27.469511760991
917,Pago largo 1135,Chica,Impar,Lluvia de oro,Preensamblado,10.0,3.0,True,-58.848122424391,-27.469274648651
920,Pago largo 1101,Grande,Impar,Fresno,Preensamblado,30.0,4.0,True,-58.8481711152209,-27.4689901379489
921,San Martín 220,Chica,Par,Ligustro,Preensamblado,30.0,1.0,True,-58.847678037741,-27.46907697073
922,San Juan 1279,Mediana,Impar,Pata de Buey (Nativa),Ninguno,5.0,1.6,True,-58.8371659174099,-27.471929618531
923,Chaco 1170,Grande,Par,Thevetia,Preensamblado,2.0,2.0,True,-58.847028778529,-27.469490011478
924,Chaco 1170,Chica,Par,Álamo blanco,Preensamblado,2.0,3.0,True,-58.84701725576,-27.46946035845
925,San Juan 1261,Mediana,Impar,Ibirá Pitá,Ninguno,10.0,1.4,True,-58.837114499019,-27.471595096862
926,Chacó 1174,Chica,Par,Falso paraiso,Alta tensión (Con Protección),1.0,3.0,True,-58.8470266747659,-27.4696820371199
927,San Juan 1241,Mediana,Impar,Ibirá Pitá,Ninguno,13.0,1.3,True,-58.8370860971189,-27.471471058395
928,Bolivar 1130,Mediana,Par,Crespón,Preensamblado,6.0,2.1,True,-58.836751553744,-27.470944995431
929,Bolivar 1158,Mediana,Par,Crespón,Preensamblado,6.0,2.1,True,-58.8365316043709,-27.470955280159
930,Bolivar 1190,Mediana,Par,Crespón,Media Tensión (Con Protección),6.0,2.1,True,-58.836239501397,-27.470995971547
931,Mendoza 1265,Grande,Impar,Ficus variegado,Media Tensión (Con Protección),5.0,2.5,True,-58.836079272033,-27.4717055924319
932,Mendoza 1267,Grande,Impar,Ficus variegado,Media Tensión (Con Protección),5.0,2.5,True,-58.836089123137,-27.4717709021099
933,Mendoza 1275,Grande,Impar,Ficus variegado,Media Tensión (Con Protección),5.0,2.5,True,-58.8360896294999,-27.471825455929
934,Mendoza  1283,Mediana,Impar,Pata de Buey (Nativa),Media Tensión (Con Protección),13.0,2.1,True,-58.8360932416579,-27.471847286151
935,Mendoza 1293,Mediana,Impar,Pata de Buey (Nativa),Media Tensión (Con Protección),4.0,2.1,True,-58.836117363485,-27.472015500255
939,Belgrano 1165,Grande,Impar,Fresno,Ninguno,8.0,2.35,True,-58.83637217375,-27.4720915550629
940,Belgrano 1159,Grande,Impar,Ficus variegado,Ninguno,6.0,2.35,True,-58.8366686514509,-27.4720639181349
941,Hipolito Irogoyen 87,Mediana,Impar,Ficus,Alta tensión (Con Protección),4.0,3.0,True,-58.851073329895,-27.467587760816
942,belgrano 1141,Grande,Impar,Mora,Ninguno,12.0,2.1,True,-58.8366995552599,-27.4720582505349
945,belgrano 1103,Grande,Impar,Fresno,Ninguno,11.0,2.1,True,-58.837143346415,-27.4720236832029
946,Padre Borgatti 980,Chica,Par,Sauce,Alta tensión (Con Protección),33.0,1.5,True,-58.8506669515129,-27.467315419666
970,cordoba 1221,Grande,Par,Fresno,Ninguno,4.0,2.2,True,-58.834774955854,-27.471178867683
947,be4lgrano 1203,Mediana,Impar,Santa Rita,Media Tensión (Con Protección),7.0,2.1,True,-58.836036019383,-27.472137087166
948,belgrano 1213,Mediana,Impar,Fresno,Media Tensión (Con Protección),4.0,2.0,True,-58.836015152899,-27.4721495862349
950,Padre Borgatti 930,Chica,Par,Fresno,Alta tensión (Con Protección),7.0,1.5,True,-58.8506160663749,-27.466957639339
952,belgrano 1257,Mediana,Impar,Palmera,Media Tensión (Con Protección),7.0,2.1,True,-58.835459645949,-27.4721866964439
953,belgrano 1263,Mediana,Impar,Palmera,Media Tensión (Con Protección),7.0,2.1,True,-58.8354210464479,-27.472189158456
954,cordoba 1290,Mediana,Par,Fresno,Media Tensión (Con Protección),6.0,2.0,True,-58.834942911318,-27.47220803564
955,cordoba 1276,Mediana,Par,Tulipanero,Media Tensión (Con Protección),6.0,2.0,True,-58.834932160545,-27.472039450513
956,cordoba 1274,Mediana,Par,Tulipanero,Media Tensión (Con Protección),6.0,2.0,True,-58.834926276257,-27.471969266382
957,cordoba 1264,Mediana,Par,Fresno,Media Tensión (Con Protección),8.0,2.0,True,-58.8349156936629,-27.4718980961839
958,cordoba  1258,Mediana,Par,Jazmín magno,Media Tensión (Con Protección),4.0,2.0,True,-58.8349017137799,-27.471759866416
959,cordoba  1254,Mediana,Par,Jazmín magno,Media Tensión (Con Protección),4.0,2.0,True,-58.8348975277749,-27.471695631507
960,cordoba 1246,Mediana,Par,Limpiatubos,Media Tensión (Con Protección),11.0,2.0,True,-58.834882244215,-27.471627808326
961,cordoba 1238,Mediana,Par,Limpiatubos,Media Tensión (Con Protección),11.0,2.0,True,-58.834872856578,-27.4715385858269
937,Belgrano 1177,Grande,Impar,Curupí,Ninguno,8.0,2.35,True,-58.8361799999999,-27.4721299999999
938,Belgrano 1171,Grande,Impar,Fresno,Ninguno,8.0,2.35,True,-58.8362,-27.47212
962,cordoba 1228,Mediana,Par,Limpiatubos,Media Tensión (Con Protección),11.0,2.0,True,-58.8348718442089,-27.47156355226
963,coedoba 1212,Mediana,Par,Crespón,Media Tensión (Con Protección),11.0,2.0,True,-58.834833792044,-27.471261669082
964,cordoba 1206,Mediana,Par,Tulipanero,Media Tensión (Con Protección),6.0,2.0,True,-58.8348540671909,-27.471233308769
965,bolivar  1288,Mediana,Par,Naranjo agrio,Media Tensión (Con Protección),4.0,2.4,True,-58.834890658142,-27.471097274891
966,bolivar 1284,Mediana,Par,Naranjo agrio,Media Tensión (Con Protección),4.0,2.4,True,-58.8349845346819,-27.471111972428
967,cordoba 1203,Grande,Impar,Fresno,Ninguno,6.0,2.5,True,-58.8347664668309,-27.471135805445
968,cordoba 1207,Grande,Par,Fresno,Ninguno,6.0,2.6,True,-58.8347763005919,-27.471145664561
969,cordoba 1211,Grande,Par,Fresno,Ninguno,4.0,2.4,True,-58.834777289465,-27.471155447859
979,catamarca 1252,Grande,Par,Pata de Buey (Nativa),Media Tensión (Con Protección),30.0,2.4,True,-58.8335502561969,-27.471721139376
971,cordoba 1287,Grande,Impar,Fresno,Ninguno,0.0,2.5,True,-58.8348956576759,-27.472219566263
972,Belgrano 1375,Chica,Impar,Naranjo agrio,Ninguno,6.0,2.4,True,-58.834153240687,-27.472294576299
973,Belgrano 1379,Grande,Impar,Fresno,Ninguno,6.0,2.4,True,-58.834018670989,-27.4723122429739
974,Catamarca  1290,Grande,Par,Mora,Media Tensión (Con Protección),10.0,2.3,True,-58.833583059311,-27.47228946209
975,Catamarca 1290,Chica,Par,Pata de Buey (Nativa),Media Tensión (Con Protección),10.0,2.3,True,-58.833577494111,-27.472290498888
976,Catamarca  1280,Grande,Par,Pata de Buey,Media Tensión (Con Protección),3.0,2.2,True,-58.833581174995,-27.472174911319
977,Catamarca  1276,Grande,Par,Fresno,Media Tensión (Con Protección),3.0,2.2,True,-58.8335730920469,-27.4720685709339
978,Catamarca 1260,Grande,Par,Pata de Buey (Nativa),Media Tensión (Con Protección),6.0,2.4,True,-58.83354998232,-27.471851988884
980,catamarca 1248,Grande,Par,Fresno,Media Tensión (Con Protección),8.0,2.4,True,-58.8335342904819,-27.471749973695
981,catamarca 1244,Grande,Par,Fresno,Media Tensión (Con Protección),8.0,2.0,True,-58.8335430599489,-27.4715831504259
982,catamarca 1230,Grande,Par,Fresno,Media Tensión (Con Protección),8.0,2.0,True,-58.833517572116,-27.471622712924
983,catamarca 1226,Grande,Par,Fresno,Media Tensión (Con Protección),8.0,2.0,True,-58.8335278594599,-27.47144510532
984,bolivar 1334,Grande,Par,Liquidambar,Ninguno,10.0,2.4,True,-58.834069897037,-27.4711980006619
985,bolivar 1228,Grande,Par,Falso paraiso,Ninguno,10.0,2.1,True,-58.8343196475,-27.471165768405
986,bolivar 1322,Grande,Par,Fresno,Ninguno,10.0,2.1,True,-58.834694329481,-27.4711141297369
987,bolivar 1316,Grande,Par,Fresno,Ninguno,4.0,2.1,True,-58.834738303636,-27.471101303392
988,bolivar 1310,Grande,Par,Fresno,Ninguno,4.0,2.1,True,-58.8347715486129,-27.471099774032
989,Hipolito Irigoyen 37,Chica,Impar,Chivato,Alta tensión (Con Protección),6.0,2.0,True,-58.851443543777,-27.467572265491
990,Hipolito Irigoyen 43,Chica,Impar,Chivato,Alta tensión (Con Protección),28.0,2.0,True,-58.8513891778769,-27.46757554019
991,Rivadavia 1155,Mediana,Impar,Palmera,Preensamblado,3.0,3.0,True,-58.8367700323289,-27.4743511979269
992,Blas parera1858,Mediana,Par,Fresno,Preensamblado,20.0,2.0,True,-58.8408209154699,-27.478272660481
470,Hirygoyen 895,Mediana,Impar,Pata de Buey,Media Tensión (Con Protección),6.0,2.0,True,-58.8393799999999,-27.4683
471,Hipolito Yrigoyen 895,Mediana,Impar,Pata de Buey,Media Tensión (Con Protección),6.0,2.0,True,-58.83944,-27.4682899999999
740,Tucumán 1571,Mediana,Impar,Crespón,Media Tensión (Sin Protección),30.0,1.5,True,-58.842143918226,-27.474458447545
936,Belgrano 1195,Grande,Impar,Fresno,Ninguno,8.0,2.35,True,-58.8361399999999,-27.4721299999999
850,Catamarca 1498,Chica,Par,Fresno,Alta tensión (Con Protección),8.5,1.5,True,-58.83382,-27.47437
832,Hipolito Yrigoyen 30,Chica,Impar,Chivato,Alta tensión (Con Protección),5.0,2.0,True,-58.85172,-27.4675599999999
993,Salta 1997,Grande,Par,Pata de Buey,Ninguno,4.0,2.0,True,-58.839459378253,-27.470517568773
994,Salta 1197,Grande,Par,Pata de Buey,Ninguno,3.5,2.0,True,-58.839429072321,-27.4704337311229
995,Salta 1198,Grande,Par,Pata de Buey,Ninguno,3.5,2.0,True,-58.8393936466029,-27.470411372611
996,Salta 1998,Grande,Par,Pata de Buey,Ninguno,3.5,2.5,True,-58.8394305213899,-27.470336018906
997,Salta 1194,Grande,Par,Pata de Buey,Ninguno,5.0,2.5,True,-58.839398492575,-27.47029420979
998,Salta 1174,Grande,Par,Palito dulce,Media Tensión (Sin Protección),3.0,2.5,True,-58.839403307633,-27.470269908873
999,Salta 1173,Grande,Par,Pata de Buey,Ninguno,3.5,2.5,True,-58.8394095272109,-27.4702281150349
1000,Salta 1165,Grande,Par,Palito dulce,Ninguno,4.5,2.5,True,-58.8393920637839,-27.4701955771049
1001,Salta 1149,Grande,Par,Fresno,Ninguno,5.0,2.5,True,-58.83941875722,-27.470144274683
1002,Salta 1161 vereda par,Grande,Par,Palito dulce,Media Tensión (Sin Protección),4.5,2.5,True,-58.839388779396,-27.470169851087
1003,Salta 1142,Grande,Par,Palito dulce,Ninguno,4.0,2.5,True,-58.83937793802,-27.4700891919539
1004,Salta 1137,Grande,Par,Pata de Buey (Nativa),Ninguno,7.0,2.5,True,-58.839385454191,-27.470067931504
1005,Salta 1137,Grande,Par,Ñangapirí,Media Tensión (Sin Protección),7.0,3.0,True,-58.839371341071,-27.4699673946139
1006,Salta 1137,Grande,Par,Pata de Buey,Ninguno,7.0,2.5,True,-58.8393956429519,-27.469909152069
1007,Salta 1134,Grande,Par,Mora,Ninguno,6.0,2.5,True,-58.8393978125129,-27.469836695718
1008,Salta 1111,Grande,Par,Pata de Buey (Nativa),Media Tensión (Sin Protección),7.0,3.0,True,-58.839387305911,-27.46982036244
1010,Salta 1108,Grande,Par,Fresno,Ninguno,11.0,2.5,True,-58.8393374438759,-27.4695909412829
1011,San martin 787,Mediana,Par,Fresno,Media Tensión (Con Protección),4.0,2.0,True,-58.8409148419769,-27.469464790549
1012,San martin 783,Mediana,Par,Fresno,Media Tensión (Sin Protección),4.0,2.0,True,-58.840945479162,-27.4694268834619
1013,San Martin 726,Mediana,Par,Palmera,Media Tensión (Con Protección),20.0,2.3,True,-58.8412070706399,-27.4694189998249
1014,San martín 718,Chica,Par,Palmera,Media Tensión (Con Protección),2.5,1.5,True,-58.8414804029549,-27.4694084024269
1015,Tucuman 1112,Mediana,Impar,Fresno,Media Tensión (Con Protección),8.0,2.0,True,-58.841684344293,-27.4695443758519
1016,Tucuman 1111,Mediana,Impar,Fresno,Media Tensión (Con Protección),8.0,2.5,True,-58.841789039891,-27.469602912424
1017,Tucuman 1142,Mediana,Impar,Fresno,Media Tensión (Con Protección),6.5,2.0,True,-58.841774691067,-27.4697519979729
1018,Tucuman 1161,Mediana,Impar,Fresno,Media Tensión (Con Protección),8.0,2.0,True,-58.8418077815509,-27.4697560198799
1019,Tucuman 1164,Mediana,Impar,Fresno,Media Tensión (Con Protección),6.0,2.0,True,-58.8416477833169,-27.470019997125
1020,Bolivar 748,Mediana,Impar,Fresno,Media Tensión (Con Protección),10.0,2.5,True,-58.8414542991399,-27.470437033698
1021,Tucuman 1136,Mediana,Par,Fresno,Media Tensión (Con Protección),7.0,2.0,True,-58.841747098915,-27.4697378286529
1022,Buenos Aires 1156,Chica,Par,Palito dulce,Media Tensión (Con Protección),15.0,1.2,True,-58.8407851670979,-27.46990990368
